id,nom_estab,nom_vial,numero_ext,tipo_asent,nomb_asent,cod_postal,entidad,municipio,localidad,telefono,latitud,longitud
8624843,ADRIANA IMAGEN Y NUTRICION,LUIS DONALDO COLOSIO,111.0,FRACCIONAMIENTO,JARDINES DE LA CONCEPCION,20120.0,AGUASCALIENTES,Aguascalientes,Aguascalientes,4492545832.0,21.92418203,-102.31174954
8250920,ALL EXPRESSIONS,NINGUNO,0.0,COLONIA,MESONEROS,20150.0,AGUASCALIENTES,Aguascalientes,Aguascalientes,4491029858.0,21.84933417,-102.29229846
8499379,ALL EXPRESSIONS MEDICAL LASSER,CONVENCION DE 1914 NORTE,2301.0,FRACCIONAMIENTO,SAN CAYETANO,20010.0,AGUASCALIENTES,Aguascalientes,Aguascalientes,,21.895822100000004,-102.3102583
6905662,ALONSO CORDOVA NUTRICIONISTA,SIERRA DEL LAUREL,416.0,FRACCIONAMIENTO,BOSQUES DEL PRADO NORTE,20127.0,AGUASCALIENTES,Aguascalientes,Aguascalientes,4497696312.0,21.9168043,-102.30444587
8524920,ARANZA RODRIGUEZ NUTRICION,GENERAL EMILIANO ZAPATA,425.0,BARRIO,GUADALUPE,20059.0,AGUASCALIENTES,Aguascalientes,Aguascalientes,4499997886.0,21.88245769,-102.30465199
8094059,ASESORIA DE NUTRICION,CONSTITUCION,530.0,COLONIA,CONSTITUCION,20126.0,AGUASCALIENTES,Aguascalientes,Aguascalientes,,21.92103666,-102.28558125
40828,ASESORIA NUTRICIONAL,HAMBURGO,116.0,FRACCIONAMIENTO,RESIDENCIAL DEL VALLE I,20080.0,AGUASCALIENTES,Aguascalientes,Aguascalientes,4491503985.0,21.87316266,-102.31801
8499487,ASESORIA NUTRICIONAL,CARLOS SAGREDO,2710.0,FRACCIONAMIENTO,LA FUNDICION,20016.0,AGUASCALIENTES,Aguascalientes,Aguascalientes,449294297.0,21.90230162,-102.31257031
8499517,ASESORIA NUTRICIONAL,ADORATRICES,933.0,FRACCIONAMIENTO,VILLAS DE NUESTRA SEÑORA DE LA ASUNCION (SECTOR ENCINO),20126.0,AGUASCALIENTES,Aguascalientes,Aguascalientes,,21.92313459,-102.26854738
23483,ASESORIA NUTRICIONAL WORDNUTRITION,JUAN DE MONTORO,209.0,COLONIA,ZONA CENTRO,20000.0,AGUASCALIENTES,Aguascalientes,Aguascalientes,4492014619.0,21.88106829,-102.29356675
7544,BE HEALTHY SALUD Y NUTRICION,JOSE H. ESCOBEDO,402.0,FRACCIONAMIENTO,SANTA ANITA,20169.0,AGUASCALIENTES,Aguascalientes,Aguascalientes,4499753441.0,21.89466675,-102.27312585
8624906,BIO NUTRICION INTEGRAL,CANAL INTERCEPTOR,311.0,FRACCIONAMIENTO,LAS ARBOLEDAS,20020.0,AGUASCALIENTES,Aguascalientes,Aguascalientes,4492221792.0,21.90267106,-102.3058351
6906022,BODY EVOLUTION,SIERRA NEVADA,119.0,FRACCIONAMIENTO,LOS BOSQUES,20120.0,AGUASCALIENTES,Aguascalientes,Aguascalientes,4491396943.0,21.91834162,-102.31255804
6943383,BODYFIT CONSULTORIO NUTRICIONAL,LAS AMERICAS,903.0,FRACCIONAMIENTO,SANTA ELENA,20239.0,AGUASCALIENTES,Aguascalientes,Aguascalientes,4492113368.0,21.8688345,-102.30267783
40143,C LIGERO,CANAL INTERCEPTOR,102.0,FRACCIONAMIENTO,LA FUNDICION,20016.0,AGUASCALIENTES,Aguascalientes,Aguascalientes,4499121181.0,21.90238032,-102.31273683
6364,CENTRO  CONTROL DE PESO ALFINA,TAJIN,126.0,FRACCIONAMIENTO,PIRAMIDES,20277.0,AGUASCALIENTES,Aguascalientes,Aguascalientes,4499139599.0,21.85050997,-102.27877099999999
9175576,CENTRO DE NUTRICION NUTRIVIA,BEGONIAS,226.0,COLONIA,LAS FLORES,20220.0,AGUASCALIENTES,Aguascalientes,Aguascalientes,,21.87225517,-102.30553686
32893,CENTRO INTEGRAL BIMEDICO,SOLEDAD,333.0,BARRIO,LA SALUD,20240.0,AGUASCALIENTES,Aguascalientes,Aguascalientes,4492012062.0,21.87279584,-102.28193521
7702793,CINK CENTRO INTEGRAL DE NUTRICION & KINESIOLOGIA,BENJAMIN DE LA MORA,204.0,COLONIA,OLIVARES SANTANA,20010.0,AGUASCALIENTES,Aguascalientes,Aguascalientes,4499284318.0,21.89266865,-102.31619389
8500125,CIRCULO MEDICO INTEGRAL,5 DE MAYO,139.0,COLONIA,LAS FLORES,20805.0,AGUASCALIENTES,Calvillo,Calvillo,,21.8435572,-102.72935053
6904832,CLINE CLINICA DE NUTRICION Y BIENESTAR INTEGRAL,JUAN PABLO II,1075.0,FRACCIONAMIENTO,MISION JUAN PABLO SEGUNDO,20219.0,AGUASCALIENTES,Aguascalientes,Aguascalientes,,21.86737308,-102.32898504
8540705,CLINICA DE NUTRICION SIN NOMBRE,HEROE DE NACOZARI SUR,1010.0,FRACCIONAMIENTO,FUENTES DE LA ASUNCION,20268.0,AGUASCALIENTES,Aguascalientes,Aguascalientes,,21.86274707,-102.28282371
6924376,CLINICA DE NUTRICION Y PADECIMIENTOS,LEONA VICARIO,207.0,BARRIO,EL ENCINO,20240.0,AGUASCALIENTES,Aguascalientes,Aguascalientes,4491731105.0,21.87569173,-102.29096043
9140265,COLSUTORIO DE NUTRICION,FUNDICION,2013.0,FRACCIONAMIENTO,SAN CAYETANO,20010.0,AGUASCALIENTES,Aguascalientes,Aguascalientes,,21.89900556,-102.31350517
6152,CONSULTAS DE NUTRICION,PASEO JUAN DE TOLOSA,612.0,FRACCIONAMIENTO,JARDINES DE AGUASCALIENTES,20270.0,AGUASCALIENTES,Aguascalientes,Aguascalientes,4491114717.0,21.86429558,-102.28958254
7408173,CONSULTORIO DE NUTRICCION,SEPTIMA,101.0,BARRIO,POPULAR,20676.0,AGUASCALIENTES,Pabellón de Arteaga,Pabellón de Arteaga,4651182135.0,22.13852628,-102.27458654
36108,CONSULTORIO DE NUTRICION,CONDELL,141.0,COLONIA,ZONA CENTRO,20000.0,AGUASCALIENTES,Aguascalientes,Aguascalientes,4491177544.0,21.8867158,-102.29563445
8250755,CONSULTORIO DE NUTRICION,QUINTA,702.0,FRACCIONAMIENTO,AGRICULTURA,20234.0,AGUASCALIENTES,Aguascalientes,Aguascalientes,4492116376.0,21.86318602,-102.29888740000001
18436,CONSULTORIO DE NUTRICIÓN,UNIVERSIDAD,103.0,FRACCIONAMIENTO,VILLAS DE LA UNIVERSIDAD,20029.0,AGUASCALIENTES,Aguascalientes,Aguascalientes,4493870224.0,21.89796196,-102.30488131
8540965,CONSULTORIO DE NUTRICION,JARDIN DE LA ALAMEDA,210.0,FRACCIONAMIENTO,JARDINES DE AGUASCALIENTES,20270.0,AGUASCALIENTES,Aguascalientes,Aguascalientes,4498953941.0,21.86665247,-102.28754183
8624886,CONSULTORIO DE NUTRICION,ROMA,219.0,FRACCIONAMIENTO,RESID. DEL VALLE 1A. SECC.,20080.0,AGUASCALIENTES,Aguascalientes,Aguascalientes,4499111867.0,21.87254861,-102.31803365
9087884,CONSULTORIO DE NUTRICION,JOSE MARIA CHAVEZ,1412.0,FRACCIONAMIENTO,JARDINES DE LA ASUNCION,20270.0,AGUASCALIENTES,Aguascalientes,Aguascalientes,4499154140.0,21.86129264,-102.29332715
8624912,CONSULTORIO DE NUTRICION,UNIVERSIDAD,103.0,FRACCIONAMIENTO,VILLAS DE LA UNIVERSIDAD,20029.0,AGUASCALIENTES,Aguascalientes,Aguascalientes,4491222953.0,21.89796196,-102.30488131
4845,CONSULTORIO DE NUTRICION,BRASILIA,511.0,FRACCIONAMIENTO,LAS FUENTES,20239.0,AGUASCALIENTES,Aguascalientes,Aguascalientes,4499163551.0,21.87135077,-102.30387004
6988202,CONSULTORIO DE NUTRICION,MOSCATEL,124.0,FRACCIONAMIENTO,BOSQUES DEL PRADO ORIENTE,20150.0,AGUASCALIENTES,Aguascalientes,Aguascalientes,,21.91278386,-102.28004531
30118,CONSULTORIO DE NUTRICIÓN,RESOLANA,232.0,FRACCIONAMIENTO,VISTAS DEL SOL,20264.0,AGUASCALIENTES,Aguascalientes,Aguascalientes,4499702012.0,21.86067522,-102.26922742
6911291,CONSULTORIO DE NUTRICION,CONVENCION DE 1914 SUR,707.0,FRACCIONAMIENTO,JARDINES DE AGUASCALIENTES,20270.0,AGUASCALIENTES,Aguascalientes,Aguascalientes,,21.86570173,-102.28919481
43884,CONSULTORIO DE NUTRICIÓN,AGUASCALIENTES ORIENTE,1701.0,FRACCIONAMIENTO,LOMAS DE SANTANITA,20164.0,AGUASCALIENTES,Aguascalientes,Aguascalientes,4492270880.0,21.89630476,-102.27119088
6979676,CONSULTORIO DE NUTRICION,NAZARIO ORTIZ GARZA,20.0,UNIDAD HABITACIONAL,LIC BENITO JUAREZ,20170.0,AGUASCALIENTES,Aguascalientes,Aguascalientes,4499807393.0,21.90018579,-102.27312036
6905872,CONSULTORIO DE NUTRICION,UNIVERSIDAD,103.0,FRACCIONAMIENTO,VILLAS DE LA UNIVERSIDAD,20029.0,AGUASCALIENTES,Aguascalientes,Aguascalientes,4491437766.0,21.89796196,-102.30488131
8540691,CONSULTORIO DE NUTRICION + SALUD,CONVENCION DE 1914 SUR,817.0,FRACCIONAMIENTO,SANTA ELENA,20239.0,AGUASCALIENTES,Aguascalientes,Aguascalientes,4492220753.0,21.86721064,-102.30388128
6905507,CONSULTORIO DE NUTRICION BALANSA SALUD Y SABOR,MARGIL DE JESUS,1204.0,FRACCIONAMIENTO,CIRCUNVALACION NORTE,20020.0,AGUASCALIENTES,Aguascalientes,Aguascalientes,4493296834.0,21.90040105,-102.30018663
40029,CONSULTORIO DE NUTRICIÓN CLÍNICA,UNIVERSIDAD,103.0,FRACCIONAMIENTO,VILLAS DE LA UNIVERSIDAD,20029.0,AGUASCALIENTES,Aguascalientes,Aguascalientes,449968439.0,21.89796196,-102.30488131
7462551,CONSULTORIO DE NUTRICION HEALTHI POWER,MIGUEL HIDALGO,114.0,COLONIA,ZONA CENTRO,20900.0,AGUASCALIENTES,Jesús María,Jesús María,,21.96003,-102.34365971
8196256,CONSULTORIO DE NUTRICION INTEGRAL,HEROE INMORTAL,909.0,FRACCIONAMIENTO,MORELOS I,20297.0,AGUASCALIENTES,Aguascalientes,Aguascalientes,4491982125.0,21.85320541,-102.26949325
8251118,CONSULTORIO DE NUTRICION NUTRAZEN,CONVENCION DE 1914 SUR,707.0,FRACCIONAMIENTO,JARDINES DE AGUASCALIENTES,20270.0,AGUASCALIENTES,Aguascalientes,Aguascalientes,4492069619.0,21.86570173,-102.28919481
8540747,CONSULTORIO DE NUTRICION SI NOMBRE,REPUBLICA DE ECUADOR,611.0,FRACCIONAMIENTO,LA FUENTE,20239.0,AGUASCALIENTES,Aguascalientes,Aguascalientes,4499036192.0,21.87029503,-102.30172468
8251120,CONSULTORIO DE NUTRICION SIN NOMBRE,HEROE DE NACOZARI SUR,1902.0,FRACCION,FUENTES DE LA ASUNCION,20268.0,AGUASCALIENTES,Aguascalientes,Aguascalientes,4494644417.0,21.86236533,-102.28284869
8541234,CONSULTORIO DE NUTRICION SIN NOMBRE,EL CHARRO,,COLONIA,LAS FLORES,20220.0,AGUASCALIENTES,Aguascalientes,Aguascalientes,,21.87134986,-102.30721423
8541311,CONSULTORIO DE NUTRICION SIN NOMBRE,MONTE ALBAN,400.0,FRACCIONAMIENTO,CASA BLANCA,20297.0,AGUASCALIENTES,Aguascalientes,Aguascalientes,4499804510.0,21.856009399999998,-102.27278719
6979821,CONSULTORIO DE NUTRICION SIN NOMBRE,JUAN DE MONTORO,481.0,COLONIA,ZONA CENTRO,20000.0,AGUASCALIENTES,Aguascalientes,Aguascalientes,4491832209.0,21.88221358,-102.28728448
7408118,CONSULTORIO DE NUTRICION SIN NOMBRE,VALENTIN GOMEZ FARIAS,5.0,COLONIA,CENTRO,20670.0,AGUASCALIENTES,Pabellón de Arteaga,Pabellón de Arteaga,4651149131.0,22.14803464,-102.27584387
37239,CONSULTORIO DE NUTRICION SIN NOMBRE,HEROE DE NACOZARI NORTE,117.0,COLONIA,LA PURISIMA,20259.0,AGUASCALIENTES,Aguascalientes,Aguascalientes,4492619065.0,21.88197084,-102.28230778
8250239,CONSULTORIO DE NUTRICION VIVET CLINIC,CRISTOBAL COLON,1704.0,FRACCIONAMIENTO,JARDINES DE LA ASUNCION,20270.0,AGUASCALIENTES,Aguascalientes,Aguascalientes,4493100502.0,21.85957024,-102.29073646
7462103,CONSULTORIO DE NUTRICION Y TERAPIA FISICA SIN NOMBRE,CAMINO REAL,946.0,LOCALIDAD,CORRAL DE BARRANCOS,20900.0,AGUASCALIENTES,Jesús María,Corral de Barrancos,4492750803.0,21.94627029,-102.33054067
8698249,CONSULTORIO EN NUTRICION Y OPTICA,PASEO JUAN DE TOLOSA,512.0,FRACCIONAMIENTO,JARDINES DE AGUASCALIENTES,20270.0,AGUASCALIENTES,Aguascalientes,Aguascalientes,4491860869.0,21.86421678,-102.29008582
13971,CONSULTORIO MEDICO NUTRICIONAL,SIERRA PICACHOS,327.0,FRACCIONAMIENTO,BOSQUES DEL PRADO SUR,20130.0,AGUASCALIENTES,Aguascalientes,Aguascalientes,4491556920.0,21.91551085,-102.30623273
8541296,CONSULTORIO MEDICO NUTRIOLOGO,REPUBLICA DE ARGENTINA,123.0,FRACCIONAMIENTO,LAS AMERICAS,20230.0,AGUASCALIENTES,Aguascalientes,Aguascalientes,,21.86923184,-102.29645687
6979688,CONSULTORIO NUTRICIONAL,GUADALUPE,548.0,BARRIO,DE GUADALUPE,20059.0,AGUASCALIENTES,Aguascalientes,Aguascalientes,,21.88464065,-102.30552589
8379463,CONSULTORIO NUTRICIONAL,LICENCIADO FRANCISCO PRIMO VERDAD,235.0,COLONIA,ZONA CENTRO,20000.0,AGUASCALIENTES,Aguascalientes,Aguascalientes,4491433125.0,21.8839794,-102.29227149
9197802,CONSULTORIO NUTRICIONAL NUTRITION TRAINING,COQUIMBO,203.0,FRACCIONAMIENTO,LA FUENTE,20239.0,AGUASCALIENTES,Aguascalientes,Aguascalientes,4492130275.0,21.87220762,-102.30196514
6905563,CONSULTORIO NUTRICIONAL SIN NOMBRE,GENERAL IGNACIO ZARAGOZA,317.0,FRACCIONAMIENTO,BOSQUES DEL PRADO NORTE,20127.0,AGUASCALIENTES,Aguascalientes,Aguascalientes,4492577809.0,21.91809672,-102.30422402
44910,CONSULTORIO NUTRICIONAL Y PSICOLOGICO YO IDEAL,HACIENDA EL TORIL,116.0,FRACCIONAMIENTO,HACIENDAS DE AGUSCALIENTES,20133.0,AGUASCALIENTES,Aguascalientes,Aguascalientes,4499404757.0,21.88887346,-102.25132422
42684,CONSULTORÍO TU PESO IDEAL,SAN JOSE DE POZO BRAVO,1615.0,FRACCIONAMIENTO,SAN JOSE DE POZO BRAVO,20126.0,AGUASCALIENTES,Aguascalientes,Aguascalientes,4494723144.0,21.93800755,-102.28079005
6912315,CONSULTORIOS DE NUTRIÓLOGOS Y DIETISTAS DEL SECTOR PRIVADO,MAHATMA GANDHI,,FRACCIONAMIENTO,SAN FRANCISCO DEL ARENAL,20280.0,AGUASCALIENTES,Aguascalientes,Aguascalientes,4494266046.0,21.82723224,-102.29400237
7407614,CONSULTURIO DE NUTRICION,JOSE MARIA MORELOS Y PAVON,201.0,BARRIO,LA LOMA,20700.0,AGUASCALIENTES,Asientos,Villa Juárez,,22.09535323,-102.06664877
6905208,DIETA INTELIGENTE,PLOMO,104.0,FRACCIONAMIENTO,FRACCINAMIENTO,20016.0,AGUASCALIENTES,Aguascalientes,Aguascalientes,4491522113.0,21.9028341,-102.31444399
7622248,DOCFITNESS,MONTES HIMALAYA,902.0,FRACCIONAMIENTO,JARDINES DE LA CONCEPCION II,20120.0,AGUASCALIENTES,Aguascalientes,Aguascalientes,4495523011.0,21.92321237,-102.29871003
39574,DRA MAYRA JANET ARADILLAS HERRERA,CANAL INTERCEPTOR NORTE,108.0,FRACCIONAMIENTO,LA FUNDICION,20016.0,AGUASCALIENTES,Aguascalientes,Aguascalientes,,21.90278882,-102.31399572
40214,FORMA VITAL CONTROL DE PESO,CONVENCION DE 1914 NORTE,2301.0,FRACCIONAMIENTO,SAN CAYETANO,20010.0,AGUASCALIENTES,Aguascalientes,Aguascalientes,4499964747.0,21.895822100000004,-102.3102583
8624526,GESTARI,SIERRA DE LA CANELA,205.0,FRACCIONAMIENTO,BOSQUES DEL PRADO NORTE,20127.0,AGUASCALIENTES,Aguascalientes,Aguascalientes,,21.91736831,-102.31211794
6911238,HEAL THY CONSULTORIO NUTRICION,JOSEFA ORTIZ DE DOMINGUEZ,508.0,FRACCIONAMIENTO,FUENTES DE LA ASUNCION,20269.0,AGUASCALIENTES,Aguascalientes,Aguascalientes,4499069729.0,21.86272827,-102.28441566
39689,LIFE,UNIVERSIDAD,811.0,FRACCIONAMIENTO,BOSQUES DEL PRADO SUR,20130.0,AGUASCALIENTES,Aguascalientes,Aguascalientes,,21.91124045,-102.31143237
7462069,MEDICO ESPECIALISTA EN NUTRICION,INDEPENDENCIA,2130.0,FRACCIONAMIENTO,RESIDENCIAL LA PALOMA,20116.0,AGUASCALIENTES,Aguascalientes,Aguascalientes,4499509285.0,21.93240806,-102.29811344
8499494,MUTRIOLOGO ARLIM,UNIVERSIDAD,406.0,FRACCIONAMIENTO,SAN CAYETANO,20010.0,AGUASCALIENTES,Aguascalientes,Aguascalientes,4492121514.0,21.90133467,-102.30702387
8624726,NATURAL CLINIC,LUIS DONALDO COLOSIO,407.0,FRACCIONAMIENTO,JARDINES DE LA CONCEPCION I,20120.0,AGUASCALIENTES,Aguascalientes,Aguascalientes,4491103353.0,21.924518600000003,-102.30603332
6905205,NATURALLI ASESORIA NUTRICIONAL,PLATA,101.0,FRACCIONAMIENTO,LA FUNDICION,20016.0,AGUASCALIENTES,Aguascalientes,Aguascalientes,4494964969.0,21.90213003,-102.31256453
6924380,NATURALZEN,NINGUNO,915.0,UNIDAD HABITACIONAL,GUADALUPE POSADA,20070.0,AGUASCALIENTES,Aguascalientes,Aguascalientes,,21.88354095,-102.31217813
8196240,NITRUCY,OJOCALIENTE,2001.0,FRACCIONAMIENTO,OJOCALIENTE INEGI,20196.0,AGUASCALIENTES,Aguascalientes,Aguascalientes,4491911759.0,21.87225382,-102.24996515
8541036,NUBE NUTRICION Y BALANCE NUTRICIONAL,ABASOLO,505.0,BARRIO,EL ENCINO,20240.0,AGUASCALIENTES,Aguascalientes,Aguascalientes,4495499835.0,21.87519331,-102.28951169
6943259,NUTERAPIA,REPUBLICA DE ECUADOR,513.0,FRACCIONAMIENTO,LAS AMERICAS,20230.0,AGUASCALIENTES,Aguascalientes,Aguascalientes,,21.87007955,-102.30052892
8916031,NUTREDIET,FELIPE COSIO,825.0,FRACCIONAMIENTO,PLUTARCO ELIAS CALLES,20677.0,AGUASCALIENTES,Pabellón de Arteaga,Pabellón de Arteaga,,22.14465191,-102.28964194
8434261,NUTRI CENTER,GENERAL IGNACIO ZARAGOZA,707.0,FRACCIONAMIENTO,TROJES DE ORIENTE,20115.0,AGUASCALIENTES,Aguascalientes,Aguascalientes,4499113322.0,21.927065399999996,-102.30493179999999
9291514,NUTRIBELLE,REPUBLICA DE ECUADOR,602.0,FRACCIONAMIENTO,LA FUENTE,20239.0,AGUASCALIENTES,Aguascalientes,Aguascalientes,,21.87016634,-102.30154133
7481424,NUTRICEN,LUIS DONALDO COLOSIO,105.0,FRACCIONAMIENTO,JARDINES DE LA CONCEPCION,20120.0,AGUASCALIENTES,Aguascalientes,Aguascalientes,4491954313.0,21.92412788,-102.31263375
7461631,NUTRICIO,URUGUAY,702.0,FRACCIONAMIENTO,SAN JOSE DE BUENAVISTA,20303.0,AGUASCALIENTES,San Francisco de los Romo,San Francisco de los Romo,,22.07143293,-102.27040956
6905899,NUTRICION EN COLORES,UNIVERSIDAD,1503.0,FRACCIONAMIENTO,LOMAS DEL CAMPESTRE II,20120.0,AGUASCALIENTES,Aguascalientes,Aguascalientes,4491383197.0,21.921176199999998,-102.3156704
8217455,NUTRICION ENCINERGIA,BENITO JUAREZ,104.0,FRACCIONAMIENTO,LOS CEDROS,20300.0,AGUASCALIENTES,San Francisco de los Romo,San Francisco de los Romo,4651266095.0,22.07117084,-102.27413094
7700863,NUTRICION PRACTICA,HOSPITALIDAD,119.0,COLONIA,ZONA CENTRO,20000.0,AGUASCALIENTES,Aguascalientes,Aguascalientes,,21.88275562,-102.29383368
8195524,NUTRIE QU HEALHT,ABASOLO,105.0,BARRIO,DE CHORA,20405.0,AGUASCALIENTES,Rincón de Romos,Rincón de Romos,,22.22986383,-102.32326001
6911973,NUTRIHEALTHY,PROFESOR ENRIQUE OLIVARES SANTANA,509.0,FRACCIONAMIENTO,EL DORADO 1RA SECC,20235.0,AGUASCALIENTES,Aguascalientes,Aguascalientes,4499786560.0,21.86082591,-102.30783504
6905215,NUTRIOLOGA,PROFESORA MARIA CONCEPCION MALDONADO,205.0,FRACCIONAMIENTO,LA CONCORDIA,20040.0,AGUASCALIENTES,Aguascalientes,Aguascalientes,,21.89005079,-102.31319888
6905289,NUTRIOLOGA,MEDELLIN,113.0,FRACCIONAMIENTO,SANTA ELENA,20239.0,AGUASCALIENTES,Aguascalientes,Aguascalientes,4491821013.0,21.86962704,-102.30455388
6923924,NUTRIOLOGA,GENERAL IGNACIO ZARAGOZA,603.0,COLONIA,ZONA CENTRO,20000.0,AGUASCALIENTES,Aguascalientes,Aguascalientes,4498973467.0,21.88733934,-102.29261557
9252738,NUTRIOLOGA  ILIANA ROCHA,MARIANO ESCOBEDO,231.0,FRACCIONAMIENTO,CASA BLANCA,20297.0,AGUASCALIENTES,Aguascalientes,Aguascalientes,,21.85642081,-102.27308376
8541132,NUTRIOLOGA LILIANA CAMPOS,MARIANO ESCOBEDO,702.0,FRACCIONAMIENTO,SIDUSA,20260.0,AGUASCALIENTES,Aguascalientes,Aguascalientes,,21.87264899,-102.2766886
7702745,NUTRIOLOGA PAOLA MILLAN,CARLOS SAGREDO,2002.0,FRACCIONAMIENTO,SAN CAYETANO,20010.0,AGUASCALIENTES,Aguascalientes,Aguascalientes,4491919891.0,21.89886907,-102.31084158
7462404,NUTRIOLOGOS. BIOSANUT,SILOS,610.0,FRACCIONAMIENTO,VILLAS DE MONTENEGRO,20110.0,AGUASCALIENTES,Aguascalientes,Aguascalientes,,21.92795955,-102.30975118
6988323,NUTRIR SALUD ENERGIA,EUGENIO GARZA SADA,168.0,EJIDO,LOS POCITOS,20238.0,AGUASCALIENTES,Aguascalientes,Pocitos,4499280940.0,21.91869337,-102.33432093
6979891,NUTRIVIA,RODOLFO LANDEROS GALLEGOS,0.0,FRACCIONAMIENTO,COLINAS DE ORIENTE,20174.0,AGUASCALIENTES,Aguascalientes,Aguascalientes,4492900706.0,21.90072644,-102.26052778
6943232,NUTRIVIDA SIN NOMBRE,1821,627.0,FRACCIONAMIENTO,MORELOS I,20298.0,AGUASCALIENTES,Aguascalientes,Aguascalientes,4494671428.0,21.85878989,-102.26057273
2653,OBESIDAD Y CONTROL DE PESO,JARDINES ETERNOS,213.0,FRACCIONAMIENTO,LA CONCORDIA,20040.0,AGUASCALIENTES,Aguascalientes,Aguascalientes,4499128585.0,21.88980169,-102.3138728
8540774,OSMARILY LA BELLA SALUD FITNESS,SIGLO XXI,504.0,FRACCIONAMIENTO,OJOCALIENTE III,20196.0,AGUASCALIENTES,Aguascalientes,Aguascalientes,4491911246.0,21.87742105,-102.24764358
7666935,OSMARILY LA BELLA SALUD FITNESS,INDEPENDENCIA,504.0,COLONIA,LOS ANGELES,20800.0,AGUASCALIENTES,Calvillo,Calvillo,,21.84598835,-102.72206528
7408293,RC NUTRITION,LICENCIADO ADOLFO LOPEZ MATEOS,801.0,COLONIA,SOLIDARIDAD,20400.0,AGUASCALIENTES,Rincón de Romos,Rincón de Romos,4493435552.0,22.22190449,-102.32450772
6979648,REDUFACIL AGUASCALIENTES,GENERAL IGNACIO ALLENDE,0.0,COLONIA,ZONA CENTRO,20000.0,AGUASCALIENTES,Aguascalientes,Aguascalientes,,21.88202755,-102.29743462
7461562,SINAI GONZALEZ REYNA,EMILIO CARRANZA,403.0,FRACCIONAMIENTO,REVOLUCION,20303.0,AGUASCALIENTES,San Francisco de los Romo,San Francisco de los Romo,,22.07724685,-102.26958422
8514544,UNIDAD MEDICA DE ESPECIALIDADES,DOCTOR G. RAMIREZ VALDEZ,126.0,FRACCIONAMIENTO,EL DORADO 1A SECCIÓN,20235.0,AGUASCALIENTES,Aguascalientes,Aguascalientes,,21.86023068,-102.30317645
2983,YO IDEAL,IGNACIO ALLENDE,305.0,COLONIA,JESUS MARIA CENTRO,20900.0,AGUASCALIENTES,Jesús María,Jesús María,4492693273.0,21.96221923,-102.34566427
6905311,YO IDEAL,FUNDICION,2019.0,FRACCIONAMIENTO,LA FUNDICION,20016.0,AGUASCALIENTES,Aguascalientes,Aguascalientes,4492693273.0,21.90010193,-102.3142116
6905672,ZAONATRIZA,GENERAL IGNACIO ZARAGOZA,323.0,FRACCIONAMIENTO,JARDINES DE LA CONVENCION II,20120.0,AGUASCALIENTES,Aguascalientes,Aguascalientes,4492857582.0,21.92083208,-102.30426328
115904,ALLURING,PASEO DE LOS HEROES,9365.0,COLONIA,ZONA URBANA RIO TIJUANA,22010.0,BAJA CALIFORNIA,Tijuana,Tijuana,6642002788.0,32.52964582,-117.02464052
6908619,ASESORIA NUTRICIONAL,15,577.0,COLONIA,ZONA CENTRO,22800.0,BAJA CALIFORNIA,Ensenada,Ensenada,6461780065.0,31.87824837,-116.62094685
9093113,ASESORIA NUTRICIONAL,15,577.0,COLONIA,ZONA CENTRO,22800.0,BAJA CALIFORNIA,Ensenada,Ensenada,6461780065.0,31.87825146,-116.62095542
8320386,BAJA SURGERY CENTER,ALAMO,286.0,PUEBLO,VICENTE GUERRERO (ALGODONES),21970.0,BAJA CALIFORNIA,Mexicali,Vicente Guerrero (Algodones),,32.71539310000001,-114.72918477
8280167,BE HEALTHY CONSULTORIO NUTRICIONAL,REPUBLICA DE COSTA RICA,794.0,COLONIA,CUAUHTEMOC NORTE,21200.0,BAJA CALIFORNIA,Mexicali,Mexicali,6863305516.0,32.66571995,-115.43689174
7138259,BEAUTY SECRETS MEDICINA ESTETICA & SPA,MANUEL J. CLOUTHIER,18561.0,FRACCIONAMIENTO,EL LAGO,22490.0,BAJA CALIFORNIA,Tijuana,Tijuana,,32.49968001,-116.91868038
6971875,BELLEZA INTEGRAL NUTRICION ODONTOLOGIA Y COSMETOLOGIA,GUSTAVO DIAZ ORDAZ,13391.0,FRACCIONAMIENTO,LA ESCONDIDA,22106.0,BAJA CALIFORNIA,Tijuana,Tijuana,,32.50756279,-116.98143959
106906,BELLEZA Y SALUD,PARALELO 28 (MATAMOROS Y/O CUCAPAH),22741.0,FRACCIONAMIENTO,VILLA FONTANA 1RA SECC,22005.0,BAJA CALIFORNIA,Tijuana,Tijuana,6641859841.0,32.5138639,-116.86359879
7016652,BODY ART,FRANCISCO JAVIER MINA,1531.0,COLONIA,ZONA RIO,22320.0,BAJA CALIFORNIA,Tijuana,Tijuana,,32.53133205,-117.02369381
8304099,CAMCOL INSTITUTO MEDICO,GALEANA,120.0,FRACCIONAMIENTO,BAHIA,22880.0,BAJA CALIFORNIA,Ensenada,Ensenada,6461137326.0,31.85910861,-116.60157772
70120,CENTRO DE INNOVACIÓN ESTETICO NUTRICIONAL,REFORMA,949.0,COLONIA,SEGUNDA SECCION,21100.0,BAJA CALIFORNIA,Mexicali,Mexicali,6865556020.0,32.66416977,-115.47887575
76417,CENTRO DE NUTRICION Y BARIATRIA,15,439.0,COLONIA,ZONA CENTRO,22800.0,BAJA CALIFORNIA,Ensenada,Ensenada,6461780707.0,31.87783075,-116.61978454
6929663,CENTRO ESPECIALIZADO DE NUTRICION POLETH SANCHEZ,DELANTE (EL ROSARIO),398.0,FRACCIONAMIENTO,COSTA AZUL,22880.0,BAJA CALIFORNIA,Ensenada,Ensenada,6462614040.0,31.85211482,-116.59670579
148273,CISA,CALZADA DE LOS INSURGENTES,,CIUDAD,GUADALUPE VICTORIA,21720.0,BAJA CALIFORNIA,Mexicali,Ciudad Guadalupe Victoria (Kilómetro Cuarenta y Tres),6862224648.0,32.28708735,-115.10036165
119697,CLINICA CONTROL DE PESO,CANTERA,400.0,SECCION,MONUMENTAL,22500.0,BAJA CALIFORNIA,Tijuana,Tijuana,6646809033.0,32.53307547,-117.12028314
87547,CLINICA DE HIPERTENCION,FRANCISCO I. MADERO,1290.0,COLONIA,SEGUNDA SECCION,21100.0,BAJA CALIFORNIA,Mexicali,Mexicali,,32.66587665,-115.47194334
58678,CLINICA DE NUTRICIÓN,SEBASTIAN LERDO DE TEJADA,1230.0,COLONIA,SEGUNDA SECCION,21100.0,BAJA CALIFORNIA,Mexicali,Mexicali,6862165918.0,32.66178418,-115.47226797
8316903,CLINICA HEALTHY MIND Y BODY,JOSE CLEMENTE OROZCO,2340.0,COLONIA,ZONA URBANA RIO TIJUANA,22010.0,BAJA CALIFORNIA,Tijuana,Tijuana,6644807031.0,32.52336114,-117.01454997
7622734,CLINICA MAP MEXICALI,BENITO JUAREZ,1400.0,FRACCIONAMIENTO,JARDINES DEL VALLE,21270.0,BAJA CALIFORNIA,Mexicali,Mexicali,,32.64014569,-115.44965425
8301636,CLINICA TERRANOVA,CUARTA,237.0,MANZANA,ZONA CENTRO,22800.0,BAJA CALIFORNIA,Ensenada,Ensenada,,31.86850055,-116.62809317
135373,CLUB DE NUTRICION,GUSTAVO DIAZ ORDAZ,13391.0,FRACCIONAMIENTO,LA ESCONDIDA,22106.0,BAJA CALIFORNIA,Tijuana,Tijuana,,32.50756279,-116.98143959
8850143,COLSULTORIO DE NUTRICION INTEGRAL,VICENTE GUERRERO,,COLONIA,EJIDO BENITO JUAREZ,21900.0,BAJA CALIFORNIA,Mexicali,Benito Juárez (Ejido Tecolotes),6862477276.0,32.57030551,-114.99829229999999
75800,CONSULTORIO ADOLFO MOYEDA PEDIATRA NUTRIOLOGO,NOVENA,311.0,COLONIA,ZONA CENTRO,22800.0,BAJA CALIFORNIA,Ensenada,Ensenada,6461781040.0,31.87231519,-116.62473146
154304,CONSULTORIO DE CONTROL DE SOBRE PESO,GUSTAVO SALINAS,11170.0,COLONIA,CENTRO ESCOLAR,22014.0,BAJA CALIFORNIA,Tijuana,Tijuana,,32.51314376,-117.00397177
71114,CONSULTORIO DE NUTRICION,NARCISO MENDOZA,242.0,FRACCIONAMIENTO,BAHIA,22880.0,BAJA CALIFORNIA,Ensenada,Ensenada,6461092361.0,31.85927907,-116.60483089
7621547,CONSULTORIO DE NUTRICION,GUSTAVO DIAZ ORDAZ,12469.0,CIUDAD,EL PARAISO,22106.0,BAJA CALIFORNIA,Tijuana,Tijuana,,32.50883833,-116.9882138
7058266,CONSULTORIO DE NUTRICION,PRINCIPAL,9769.0,COLONIA,EL FLORIDO SEGUNDA SECCION,22237.0,BAJA CALIFORNIA,Tijuana,Tijuana,,32.46750783,-116.87264301
8515870,CONSULTORIO DE NUTRICION,PASEO CENTENARIO TIJUANA,10310.0,COLONIA,ZONA URBANA ZONA RIO,22010.0,BAJA CALIFORNIA,Tijuana,Tijuana,,32.53079673,-117.01459336
8552285,CONSULTORIO DE NUTRICION,GUADALUPE VICTORIA,9492.0,COLONIA,ZONA RIO,22010.0,BAJA CALIFORNIA,Tijuana,Tijuana,,32.52669088,-117.02276104
8553117,CONSULTORIO DE NUTRICION,SANTA FE,2564.0,FRACCIONAMIENTO,SANTA FE TERCERA SECCION,22654.0,BAJA CALIFORNIA,Tijuana,Tijuana,6642043749.0,32.43417054,-117.02351531
9208211,CONSULTORIO DE NUTRICION,ADOLFO RAMIREZ MENDEZ,510.0,FRACCIONAMIENTO,BAHIA,22880.0,BAJA CALIFORNIA,Ensenada,Ensenada,6462101019.0,31.85829678,-116.60294307
9142155,CONSULTORIO DE NUTRICION,NARCISO MENDOZA,242.0,FRACCIONAMIENTO,BAHIA,22880.0,BAJA CALIFORNIA,Ensenada,Ensenada,6461717379.0,31.85927907,-116.60483089
154149,CONSULTORIO DE NUTRICION,ALFREDO RAMOS MARTINEZ,10611.0,COLONIA,ZONA URBANA RIO TIJUANA,22320.0,BAJA CALIFORNIA,Tijuana,Tijuana,6646849017.0,32.51984209,-117.0125486
6949736,CONSULTORIO DE NUTRICION,NUEVA AURORA,7409.0,COLONIA,XICOTENCOTL,22606.0,BAJA CALIFORNIA,Tijuana,Tijuana,6647288197.0,32.48358531,-117.06589676
8727964,CONSULTORIO DE NUTRICION,CALLE DE LOS ENCINOS,1192.0,FRACCIONAMIENTO,FRACC COLINAS DEL CUCHUMA,21449.0,BAJA CALIFORNIA,Tecate,Tecate,6651060377.0,32.56896210000001,-116.65550129
55785,CONSULTORIO DE NUTRICION,PRESIDENTE VENUSTIANO CARRANZA,18.0,COLONIA,ZONA CENTRO,21400.0,BAJA CALIFORNIA,Tecate,Tecate,6655213221.0,32.57275988,-116.63278103
8677460,CONSULTORIO DE NUTRICION,GERMAN GEDOVIUS,9506.0,COLONIA,ZONA RIO,22320.0,BAJA CALIFORNIA,Tijuana,Tijuana,,32.52074471,-117.01262870000001
8551525,CONSULTORIO DE NUTRICION NUTRIOLOGA,FRANCISCO JAVIER MINA,9288.0,COLONIA,ZONA URBANA RIO TIJUANA,22320.0,BAJA CALIFORNIA,Tijuana,Tijuana,,32.53011802,-117.02479239
7803828,CONSULTORIO DE NUTRICION SIN NOMBRE,OCTAVA (MIGUEL HIDALGO),8384.0,COLONIA,ZONA CENTRO,22000.0,BAJA CALIFORNIA,Tijuana,Tijuana,,32.52856016,-117.03309688
119011,CONSULTORIO DE NUTRICION SIN NOMBRE,RIO TIJUANA,2589.0,COLONIA,ZONA URBANA RIO TIJUANA,22010.0,BAJA CALIFORNIA,Tijuana,Tijuana,6646346434.0,32.52140164,-117.01515541
8346336,CONSULTORIO DE NUTRIOLOGA,CARROCEROS,,COLONIA,BUROCRATAS,21020.0,BAJA CALIFORNIA,Mexicali,Mexicali,6961698273.0,32.65398659,-115.45656631
8319665,CONSULTORIO DE NUTRIOLOGIA,REPUBLICA DE ECUADOR,689.0,COLONIA,CUAUHTEMOC NORTE,21200.0,BAJA CALIFORNIA,Mexicali,Mexicali,,32.663633600000004,-115.43844563
8370600,CONSULTORIO ESBELTICA,J,1798.0,COLONIA,LIBERTAD,21010.0,BAJA CALIFORNIA,Mexicali,Mexicali,,32.65075825,-115.45851144
8093687,CONSULTORIO MEDICINA ESTETICA,ALFREDO RAMOS MARTINEZ,10611.0,COLONIA,ZONA URBANA RIO TIJUANA,22320.0,BAJA CALIFORNIA,Tijuana,Tijuana,,32.51941304,-117.01187877
119289,CONSULTORIO MEDICO DE NUTRICION,GENERAL RODOLFO SANCHEZ TABOADA,10999.0,COLONIA,ZONA URBANA RIO TIJUANA,22010.0,BAJA CALIFORNIA,Tijuana,Tijuana,,32.51754099,-117.00840311
7622306,CONSULTORIO MEDICO NUTRIOLOGA,GENERAL RODOLFO SANCHEZ TABOADA,10999.0,COLONIA,ZONA URBANA RIO TIJUANA,22010.0,BAJA CALIFORNIA,Tijuana,Tijuana,,32.51754012,-117.00840203
66521,CONSULTORIO NUTRICIONAL,SAN BENITO,10.0,FRACCIONAMIENTO,NUEVA ENSENADA,22880.0,BAJA CALIFORNIA,Ensenada,Ensenada,,31.85180123,-116.60632141
93944,CONSULTORIO NUTRICIONAL NE VITAL,CUARTA (MUTUALISMO),390.0,COLONIA,ZONA CENTRO,22800.0,BAJA CALIFORNIA,Ensenada,Ensenada,,31.86376784,-116.61893498
8346711,CONSULTORIO SIN NOMBRE NUTRIOLOGO CLINICO Y DEPORTIVO,B,248.0,COLONIA,SEGUNDA SECCION,21100.0,BAJA CALIFORNIA,Mexicali,Mexicali,,32.66337172,-115.47784459
8316954,CONSULTORIOS DE NUTRIÓLOGOS Y DIETISTAS DEL SECTOR PRIVADO,GOBERNADOR LUGO,3.0,COLONIA,GOBERNADOR IBARRA,22044.0,BAJA CALIFORNIA,Tijuana,Tijuana,,32.51645939,-117.02268017
6930184,CONSULTORIOS DE NUTRIÓLOGOS Y DIETISTAS DEL SECTOR PRIVADO,GENERAL ALVARO OBREGON,1047.0,COLONIA,SEGUNDA SECCION,21100.0,BAJA CALIFORNIA,Mexicali,Mexicali,,32.66301157,-115.47611768
154347,CONSULTORIOS DE NUTRIÓLOGOS Y DIETISTAS DEL SECTOR PRIVADO,GENERAL ABELARDO L. RODRIGUEZ,10.0,COLONIA,ZONA URBANA RIO TIJUANA,22000.0,BAJA CALIFORNIA,Tijuana,Tijuana,,32.52100821,-117.0096307
7016905,CONSULTORIOS DE NUTRIÓLOGOS Y DIETISTAS DEL SECTOR PRIVADO,DIEGO RIVERA,2386.0,COLONIA,ZONA URBANA RIO TIJUANA,22010.0,BAJA CALIFORNIA,Tijuana,Tijuana,,32.5242956,-117.01235279999999
118743,COSMEDIKA,RIO TIJUANA,2532.0,COLONIA,ZONA URBANA RIO TIJUANA,22320.0,BAJA CALIFORNIA,Tijuana,Tijuana,6642002916.0,32.52195603,-117.01444365
8316668,DANKA NUTRICION SPA,NICOLAS BRAVO,23.0,FRACCIONAMIENTO,LOMAS DE HIPODROMO DOS,22106.0,BAJA CALIFORNIA,Tijuana,Tijuana,,32.49818988,-116.98585516
8797320,DR CESAR MEDRANO,CARPINTEROS,1934.0,COLONIA,BUROCRATA,21020.0,BAJA CALIFORNIA,Mexicali,Mexicali,,32.65494628,-115.45663554
6908194,DR GUILLERMO DIAZ VERGARA,TRANSPENINSULAR (REFORMA),3976.0,ZONA COMERCIAL,MACROPLAZA DEL MAR,22890.0,BAJA CALIFORNIA,Ensenada,Ensenada,,31.82083387,-116.59882968
87363,DR JUAN FRANCISCO ARELLANO RAMOS,LUIS CASTRO LOPEZ,148.0,COLONIA,SEGUNDA SECCION,21100.0,BAJA CALIFORNIA,Mexicali,Mexicali,6865535340.0,32.66486519,-115.47572938
8346176,DR MARITGEN,REFORMA,1769.0,COLONIA,NUEVO,21100.0,BAJA CALIFORNIA,Mexicali,Mexicali,,32.66551017,-115.46076767
124951,DR O ESTILO DE VIDA,D,14380.0,COLONIA,5Y10,22450.0,BAJA CALIFORNIA,Tijuana,Tijuana,6646087348.0,32.49775947,-116.96847585
8346287,DR. OMAR FONSECA,PLATEROS,,COLONIA,BUROCRATAS,21020.0,BAJA CALIFORNIA,Mexicali,Mexicali,,32.657203499999994,-115.45337612
6948186,DRA. LIZETH ZARAGOZA,RAUL SANCHEZ DIAZ,1.0,COLONIA,ECHEVERRIA,22703.0,BAJA CALIFORNIA,Playas de Rosarito,Playas de Rosarito,,32.37097873,-117.06030849
7622732,DRA. POLETH SANCHEZ LEYVA,DELANTE (EL ROSARIO),398.0,FRACCIONAMIENTO,COSTA AZUL,22880.0,BAJA CALIFORNIA,Ensenada,Ensenada,6462614040.0,31.85211482,-116.59670579
96039,EDUTRICIÓN,CALZADA DE LAS AGUILAS,2063.0,COLONIA,MAESTROS,22840.0,BAJA CALIFORNIA,Ensenada,Ensenada,6461121476.0,31.86568656,-116.58738875
8345707,EQUILIBRA ASESORIA NUTRICIONAL,ALVARADO,143.0,COLONIA,ZONA CENTRO,22800.0,BAJA CALIFORNIA,Ensenada,Ensenada,6462038107.0,31.86261495,-116.62275787
115485,ESBELTEZ,OCAMPO,1435.0,CIUDAD,ZONA CENTRO,22000.0,BAJA CALIFORNIA,Tijuana,Tijuana,6646261212.0,32.52484295,-117.03100739
76400,ESPECIALISTA EN MEDICINA FAMILIAR Y OBESIDAD,18,,COLONIA,ZONA CENTRO,22800.0,BAJA CALIFORNIA,Ensenada,Ensenada,6461753483.0,31.88115271,-116.61873386
123273,FARRELL SALUD Y BIENESTAR TOTAL,CARDENAS,10594.0,COLONIA,AVIACION,22014.0,BAJA CALIFORNIA,Tijuana,Tijuana,,32.51482482,-117.00991305
8320189,GR NUTRICION,RIO PRESIDIO,1298.0,COLONIA,BENITO JUAREZ,21250.0,BAJA CALIFORNIA,Mexicali,Mexicali,6861567002.0,32.64321396,-115.42371233
8677712,GRUPO BALANCE,CORAL,141.0,COLONIA,TERRAZAS DEL DEL RUBI,22637.0,BAJA CALIFORNIA,Tijuana,Tijuana,,32.48768392,-117.03183395
86708,GRUPO REN,ALAMO,210.0,COLONIA,BARRIO ALAMO,21150.0,BAJA CALIFORNIA,Mexicali,Mexicali,,32.64385619,-115.47826692
7016806,HEALTHY NUTRITION,FRANCISCO JAVIER MINA,9288.0,COLONIA,ZONA RIO,22320.0,BAJA CALIFORNIA,Tijuana,Tijuana,,32.53011802,-117.02479239
8552130,HISPALI,ANTONIO CASO,2055.0,COLONIA,ZONA RIO,22010.0,BAJA CALIFORNIA,Tijuana,Tijuana,,32.52491749,-117.02013659
8551727,HOSPITAL MILLENIUM,COLIMA,2332.0,COLONIA,MADERO,22040.0,BAJA CALIFORNIA,Tijuana,Tijuana,,32.52120028,-117.02899504
8589400,INTERNATIONAL METABOLIC BARIATRIC CENTER SC,GENERAL RODOLFO SANCHEZ TABOADA,1600.0,COLONIA,ZONA RIO,22010.0,BAJA CALIFORNIA,Tijuana,Tijuana,,32.52474132,-117.02252759999999
135259,LANTHU,SOR JUANA INES DE LA CRUZ,14901.0,FRACCIONAMIENTO,GUILLEN,22105.0,BAJA CALIFORNIA,Tijuana,Tijuana,6646224035.0,32.50515565,-116.97776062
6908185,LUXERNA DERMA CLINIC & SPA,LAS DUNAS,160.0,FRACCIONAMIENTO,PLAYA ENSENADA,22880.0,BAJA CALIFORNIA,Ensenada,Ensenada,,31.85739822,-116.61676501
87043,MED LINE DE NUTRISALUD,MECANICOS,1549.0,COLONIA,INDUSTRIAL,21010.0,BAJA CALIFORNIA,Mexicali,Mexicali,,32.65156779,-115.46425909
7622904,MED-ESTEHETIC,LOS PINOS,13.0,FRACCIONAMIENTO,LOS PINOS,21230.0,BAJA CALIFORNIA,Mexicali,Mexicali,,32.65326168,-115.45230404
8301187,MEDICINA BIOLOGICA GALVAN H,LAS DUNAS,117.0,FRACCIONAMIENTO,PLAYA ENSENADA,22880.0,BAJA CALIFORNIA,Ensenada,Ensenada,,31.85686506,-116.61645808
8320330,MEDICO CARE,SARATOGA,,PUEBLO,VICENTE GUERRERO (ALGODONES),21970.0,BAJA CALIFORNIA,Mexicali,Vicente Guerrero (Algodones),,32.71587524,-114.72735836
8514648,MENDIOLA NUTRICION,MISION DE MULEGE,3063.0,COLONIA,ZONA RIO,22010.0,BAJA CALIFORNIA,Tijuana,Tijuana,,32.51811866,-117.00845819999999
8677400,MI NUTRILOGA ELIZABETH CORONA,NOVENA,444.0,COLONIA,ZONA CENTRO,22800.0,BAJA CALIFORNIA,Ensenada,Ensenada,6469478129.0,31.87172666,-116.62355117
8697777,MOCTEZUMA MEDICA DENTAL,MOCTEZUMA,764.0,COLONIA,CENTRO,22800.0,BAJA CALIFORNIA,Ensenada,Ensenada,,31.87113891,-116.62677439
6739847,MOLDEARTE,GUSTAVO DIAZ ORDAZ,15034.0,FRACCIONAMIENTO,GUADALAJARA (LA MESA),22115.0,BAJA CALIFORNIA,Tijuana,Tijuana,,32.49275804,-116.95588191
8552212,MOLDEARTE CENTRO,FRANCISCO I. MADERO,8251.0,COLONIA,ZONA CENTRO,22000.0,BAJA CALIFORNIA,Tijuana,Tijuana,,32.52962835,-117.03478600000001
6908683,MULTIMEDICA DEL PARQUE,SEPTIMA,229.0,COLONIA,ZONA CENTRO,22800.0,BAJA CALIFORNIA,Ensenada,Ensenada,6469771761.0,31.87038881,-116.62617145
8551581,NUMED CLINIC,FRANCISCO JAVIER MINA,1415.0,COLONIA,ZONA URBANA RIO TIJUANA,22320.0,BAJA CALIFORNIA,Tijuana,Tijuana,,32.53075952,-117.02421188
9035732,NUTIOLOGA,BENITO JUAREZ,296.0,COLONIA,MACHADO NORTE,22703.0,BAJA CALIFORNIA,Playas de Rosarito,Playas de Rosarito,,32.36034729,-117.05861193
7048025,NUTRETE,ESTEBAN CANTU,360.0,COLONIA,ROMERO,21410.0,BAJA CALIFORNIA,Tecate,Tecate,,32.57167385,-116.63786104
119815,NUTRICEN,PASEO ENSENADA,11.0,SECCION,SECC MONUMENTAL,22205.0,BAJA CALIFORNIA,Tijuana,Tijuana,6644487444.0,32.53150291,-117.11550331
8112591,NUTRICION CLINICA,LUIS CASTRO LOPEZ,148.0,COLONIA,SEGUNDA SECCION,21100.0,BAJA CALIFORNIA,Mexicali,Mexicali,,32.66486519,-115.47572938
96669,NUTRICION CLINICA OBESIDAD,ABASOLO,268.0,FRACCIONAMIENTO,BAHIA,22880.0,BAJA CALIFORNIA,Ensenada,Ensenada,,31.857974,-116.60393046
83090,NUTRICION CLINICA Y OBESIDAD,SOFIA,,FRACCIONAMIENTO,RESIDENCIAS,21280.0,BAJA CALIFORNIA,Mexicali,Mexicali,6865546274.0,32.62796339,-115.44657409999999
8677276,NUTRICION EN TU VIDA DIARIA,EMILIANO ZAPATA (QUINTA),7727.0,COLONIA,ZONA CENTRO,22000.0,BAJA CALIFORNIA,Tijuana,Tijuana,,32.53132661,-117.04267758
87276,NUTRICION ESPECIALIZADA,FRANCISCO I. MADERO,1173.0,COLONIA,SEGUNDA SECCION,21100.0,BAJA CALIFORNIA,Mexicali,Mexicali,,32.66588586,-115.47407979
6930186,NUTRICION FUNCIONAL,GENERAL ALVARO OBREGON,1047.0,COLONIA,SEGUNDA SECCION,21100.0,BAJA CALIFORNIA,Mexicali,Mexicali,6861128743.0,32.66301157,-115.47611768
9035134,NUTRICION MEDICA,AVENIDA DE LAS AMERICAS,3.0,FRACCIONAMIENTO,HIPODROMO,22025.0,BAJA CALIFORNIA,Tijuana,Tijuana,,32.5035906,-116.99969969
8850109,NUTRICION PARA LA VIDA,PASEO A PLAYAS DE TIJUANA,1328.0,SECCION,JARDINES,22500.0,BAJA CALIFORNIA,Tijuana,Tijuana,,32.52417982,-117.11993102
95612,NUTRICIÓN Y ESTÉTICA,ADOLFO RAMIREZ MENDEZ,1249.0,COLONIA,VIVIENDA POPULAR 2,22880.0,BAJA CALIFORNIA,Ensenada,Ensenada,,31.85939919,-116.59650156
87356,NUTRICLUB,REFORMA,1049.0,COLONIA,SEGUNDA SECCION,21100.0,BAJA CALIFORNIA,Mexicali,Mexicali,6869465459.0,32.66434539,-115.47654834
8551716,NUTRI-DENTAL,DURANGO,2232.0,COLONIA,MADERO,22040.0,BAJA CALIFORNIA,Tijuana,Tijuana,,32.52264667,-117.02831782
151720,NUTRIENDO T.,DEFENSORES DE BAJA CALIFORNIA,250.0,COLONIA,BUROCRATA RUIZ CORTINEZ,22350.0,BAJA CALIFORNIA,Tijuana,Tijuana,6643314415.0,32.52930564,-117.00999114
8093780,NUTRIOLOGA,BAHIA MAGDALENA,107.0,COLONIA,ACAPULCO,22890.0,BAJA CALIFORNIA,Ensenada,Ensenada,6461186158.0,31.83897144,-116.60594117
8728123,NUTRIOLOGA,MIGUEL HIDALGO Y COSTILLA,470.0,COLONIA,PLIEGO,21420.0,BAJA CALIFORNIA,Tecate,Tecate,,32.57266651,-116.62151938
8850354,NUTRIOLOGA,URBANO VASQUEZ (CUARTA),1837.0,COLONIA,GONZALEZ ORTEGA,21397.0,BAJA CALIFORNIA,Mexicali,Mexicali,,32.59705707,-115.39542849
59840,NUTRIOLOGA,REVOLUCION,0.0,COLONIA,ESPINOZA,21410.0,BAJA CALIFORNIA,Tecate,Tecate,6862388502.0,32.57416915,-116.63695351
8880084,NUTRIOLOGA ANA KAREN,CONSTELACION,75.0,COLONIA,LOMAS TAURINAS,22410.0,BAJA CALIFORNIA,Tijuana,Tijuana,6643743558.0,32.54061376,-116.99353486
8996422,NUTRIOLOGO SIN NOMBRE,INSURGENTES,937.0,COLONIA,CHAMIZAL,22415.0,BAJA CALIFORNIA,Tijuana,Tijuana,,32.51944697,-116.9785254
6907901,NUTRIVER,BENITO JUAREZ (QUINTA),1449.0,COLONIA,OBRERA,22800.0,BAJA CALIFORNIA,Ensenada,Ensenada,6461120326.0,31.86339409,-116.61408788
6908267,NUTRIVIDA,CALZADA DE LAS AGUILAS,1024.0,COLONIA,AVIACION,22840.0,BAJA CALIFORNIA,Ensenada,Ensenada,6461625950.0,31.86399761,-116.59902126
76790,NUTRIVY NUTRICION ESPECIALIZADA Y CONTROL DE PESO,PASEO ENSENADA,1280.0,SECCION,PLAYAS DE TIJUANA,22506.0,BAJA CALIFORNIA,Tijuana,Tijuana,6646301611.0,32.52471421,-117.1160872
9178663,OBESITY GOOD BYE CLINIC,FRANCISCO I. MADERO,2050.0,CIUDAD,ZONA CENTRO,22000.0,BAJA CALIFORNIA,Tijuana,Tijuana,6642367542.0,32.52416809,-117.03396950000001
8280501,ORR NUTRIOLOGO,GENERAL RODOLFO SANCHEZ TABOADA,9551.0,COLONIA,ZONA RIO,22010.0,BAJA CALIFORNIA,Tijuana,Tijuana,,32.52442944,-117.02181834
6959219,PASIFIC INSTITUTE,5 DE MAYO (F),992.0,COLONIA,ZONA CENTRO,22000.0,BAJA CALIFORNIA,Tijuana,Tijuana,,32.53222814,-117.04494614
8301260,PERFECT SKIN,NINGUNO,102.0,COLONIA,ADOLFO RUIZ CORTINES,22785.0,BAJA CALIFORNIA,Ensenada,Ensenada,,31.80758446,-116.59566034
8319588,PESO IDEAL CENTRO DE NUTRICION,RIO SAN PEDRO MEZQUITAL,,COLONIA,VALLE DORADO,21399.0,BAJA CALIFORNIA,Mexicali,Mexicali,,32.60900507,-115.40509102
6908370,PINEDA INTEGRAL MEDIC,FRANCISCO MINA,,FRACCIONAMIENTO,BAHIA,22880.0,BAJA CALIFORNIA,Ensenada,Ensenada,6461716178.0,31.85729335,-116.60049959
8094068,PRIMERO TU SALUD PRIMERO TU BELLEZA,SACRAMENTO,4151.0,FRACCIONAMIENTO,JARDINES DE SAN CARLOS,22106.0,BAJA CALIFORNIA,Tijuana,Tijuana,,32.50823432,-116.98643225
6422499,PROBALENCE CENTER,REFORMA,695.0,COLONIA,PRIMERA SECCION,21100.0,BAJA CALIFORNIA,Mexicali,Mexicali,6865554281.0,32.66372735,-115.48485198
138259,PRONATURA NOROESTE,LEYES DE REFORMA,130.0,COLONIA,BENITO JUAREZ,22703.0,BAJA CALIFORNIA,Playas de Rosarito,Playas de Rosarito,6611079862.0,32.40227951,-117.04975415
85942,PROSABE,URBANO VASQUEZ (CUARTA),,COLONIA,GONZALEZ ORTEGA,21397.0,BAJA CALIFORNIA,Mexicali,Mexicali,6861701915.0,32.59300272,-115.39561967
7633889,REDUFACIL ROSARITO,NINGUNO,300.0,ZONA COMERCIAL,PARCELAS,22704.0,BAJA CALIFORNIA,Playas de Rosarito,Playas de Rosarito,6642049958.0,32.37873665,-117.060301
8515640,REGENERATIVE MEDECINE,PASEO CENTENARIO TIJUANA,9211.0,COLONIA,ZONA URBANA RIO TIJUANA,22320.0,BAJA CALIFORNIA,Tijuana,Tijuana,,32.53687842,-117.02471010000001
8849765,REJUVIMED INTERNACIONAL,BURSATIL,9043.0,COLONIA,ZONA URBANA RIO TIJUANA,22010.0,BAJA CALIFORNIA,Tijuana,Tijuana,,32.53965129,-117.02766112
8346315,RINNOVARE,IGNACIO ALLENDE,,COLONIA,LAZARO CARDENAS,22940.0,BAJA CALIFORNIA,Ensenada,Lázaro Cárdenas,,30.52461766,-115.92943394
6908023,RN DE NOU NUTRITION,PEDRO LOYOLA,190.0,COLONIA,ACAPULCO,22890.0,BAJA CALIFORNIA,Ensenada,Ensenada,,31.83702423,-116.60659083
7633929,RUSSOLL MEDICAL,DAVID ALFARO SIQUEIROS,2621.0,COLONIA,ZONA RIO,22010.0,BAJA CALIFORNIA,Tijuana,Tijuana,,32.52325711,-117.01100442
88833,SALUD Y SILUETA,RIO PRESIDIO,544.0,COLONIA,SANTA MARIA,21240.0,BAJA CALIFORNIA,Mexicali,Mexicali,6865560071.0,32.65782382,-115.42454177
7049380,SANA ALIMENTACION CONSULTORIO DE NUTRICION,ENSENADA,1074.0,FRACCIONAMIENTO,FRACC COLINAS DEL CUCHUMA,21449.0,BAJA CALIFORNIA,Tecate,Tecate,6651138584.0,32.57042012,-116.65386819
7048712,SANNOVA,MIGUEL HIDALGO Y COSTILLA,470.0,COLONIA,PLIEGO,21420.0,BAJA CALIFORNIA,Tecate,Tecate,,32.57266651,-116.62151938
7621647,SANO Y PUNTO,OAXTEPEC,12175.0,HACIENDA,HACIENDA REMOSA,22030.0,BAJA CALIFORNIA,Tijuana,Tijuana,,32.48825013,-116.99636308
134322,SILUETA 7,RUTA MATAMOROS,7773.0,COLONIA,MARIANO MATAMOROS NORTE,22206.0,BAJA CALIFORNIA,Tijuana,Tijuana,6649021966.0,32.49603763,-116.88616828
69787,SILUETA CLÍNICA DE CONTROL DE PESO Y OBESIDAD,MIRAMAR,727.0,COLONIA,ZONA CENTRO,22800.0,BAJA CALIFORNIA,Ensenada,Ensenada,,31.86899743,-116.62230052
6915030,SOMOS NUTRICION,REPUBLICA DE COLOMBIA,,COLONIA,CUAUHTEMOC NORTE,21200.0,BAJA CALIFORNIA,Mexicali,Mexicali,6861213001.0,32.66540533,-115.45188182
8565536,SPLENDHERE,GENERAL RODOLFO SANCHEZ TABOADA,10512.0,COLONIA,REVOLUCION,22015.0,BAJA CALIFORNIA,Tijuana,Tijuana,,32.52230878,-117.01728634
101430,TALLA BAJA,CALLE DE LA PAZ,254.0,COLONIA,ACAPULCO,22890.0,BAJA CALIFORNIA,Ensenada,Ensenada,,31.83580761,-116.60278016
76046,UNIDAD MÉDICA DEL PARQUE NUTRIÓLOGA,SEPTIMA,241.0,COLONIA,CENTRO,22800.0,BAJA CALIFORNIA,Ensenada,Ensenada,6461565238.0,31.87138404,-116.62602806
7016903,UNIDAD QUIRURGICA CER,DIEGO RIVERA,2386.0,COLONIA,ZONA URBANA RIO TIJUANA,22010.0,BAJA CALIFORNIA,Tijuana,Tijuana,,32.5242956,-117.01235279999999
7017006,VACU CLINIC,GUSTAVO SALINAS,10755.0,COLONIA,AVIACION,22014.0,BAJA CALIFORNIA,Tijuana,Tijuana,,32.51465212,-117.00802204
8370648,VI BALANCE,MINEROS,1699.0,COLONIA,LIBERTAD,21010.0,BAJA CALIFORNIA,Mexicali,Mexicali,,32.65086506,-115.46115565
8514587,VISAGE,MISION DE SANTO TOMAS,2983.0,COLONIA,ZONA RIO,22010.0,BAJA CALIFORNIA,Tijuana,Tijuana,6641046134.0,32.51843361,-117.01008921
8767298,AGUIRRE NUTRICION,LAS VINORAMAS,0.0,COLONIA,LOMAS ALTAS LOMAS DEL FARO,23472.0,BAJA CALIFORNIA SUR,Los Cabos,Cabo San Lucas,6241224258.0,22.89926034,-109.93171874
8767198,ASESORIA NUTRICIONAL,MIGRIÑO,,COLONIA,EL PROGRESO,23400.0,BAJA CALIFORNIA SUR,Los Cabos,Cabo San Lucas,6243553118.0,22.90721042,-109.92972365
8942947,BELLISIMA,FORJADORES DE SUDCALIFORNIA,,COLONIA,LAS GARZAS,23079.0,BAJA CALIFORNIA SUR,La Paz,La Paz,,24.13272405,-110.31211699999999
8334576,BODY BALANCE,MEXICO,0.0,COLONIA,LAS GARZAS,23098.0,BAJA CALIFORNIA SUR,La Paz,La Paz,,24.136751500000003,-110.31445532
168770,CLINICA BIONUTRICION,TRANSPENINSULAR,12.0,COLONIA,CLUB DE GOLF RESIDENCIAL,23405.0,BAJA CALIFORNIA SUR,Los Cabos,San José del Cabo,6241469795.0,23.04271364,-109.70600825
8428559,CLINICA DE NUTRICION,JOSE MARIA MORELOS Y PAVON,,COLONIA,EJIDAL,23470.0,BAJA CALIFORNIA SUR,Los Cabos,Cabo San Lucas,3319614587.0,22.89755246,-109.91845532
8334319,CLINICA NUTRITION,AVENIDA DEL PEZ VELA,39.0,FRACCIONAMIENTO,CIUDAD DEL RECREO,23094.0,BAJA CALIFORNIA SUR,La Paz,La Paz,6121312223.0,24.13065259,-110.34252412
6951101,CONSULTA NUTRICIONAL,BAJA CALIFORNIA,,COLONIA,ZACATAL,23430.0,BAJA CALIFORNIA SUR,Los Cabos,San José del Cabo,,23.09476501,-109.7148118
7377631,CONSULTORIO BARIATRICO,CONCEPCION CASILLAS SEGUAME,,COLONIA,MARCELO RUBIO,23940.0,BAJA CALIFORNIA SUR,Mulegé,Guerrero Negro,6151065693.0,27.96874305,-114.03393442
7512982,CONSULTORIO DE ATENCION NUTRICIONAL ESBELTICA,LICENCIADO HUGO CERVANTES DEL RIO,,COLONIA,CENTRO,23600.0,BAJA CALIFORNIA SUR,Comondú,Ciudad Constitución,6131056403.0,25.03397428,-111.66784995
171917,CONSULTORIO DE ESPECIALIDADES MEDICAS Y LABORATORIO NUESTRA SEÑORA DE LA SALUD,IGNACIO RAMIREZ,,COLONIA,CIUDAD CONSTITUCION CENTRO,23600.0,BAJA CALIFORNIA SUR,Comondú,Ciudad Constitución,6131139234.0,25.02391647,-111.66456613
8160198,CONSULTORIO DE NUTRICION,GENERAL FELIX ORTEGA,,COLONIA,CENTRO,23000.0,BAJA CALIFORNIA SUR,La Paz,La Paz,6123485404.0,24.15356861,-110.30506258
6942091,CONSULTORIO DE NUTRICION,EBANO,,COLONIA,ARBOLEDAS,23060.0,BAJA CALIFORNIA SUR,La Paz,La Paz,6121530161.0,24.13590252,-110.32477461
6942263,CONSULTORIO DE NUTRICION,QUINTANA ROO,3380.0,COLONIA,LAS GARZAS,23098.0,BAJA CALIFORNIA SUR,La Paz,La Paz,,24.13450253,-110.31258927
8335037,CONSULTORIO DE NUTRICION ADRIANA HIRALES,ANTONIO ROSALES,,COLONIA,CENTRO,23000.0,BAJA CALIFORNIA SUR,La Paz,La Paz,,24.15238381,-110.31199676
8211268,CONSULTORIO NUTRICIONAL,ADOLFO RUIZ CORTINES,,COLONIA,MARIANO MATAMOROS,23470.0,BAJA CALIFORNIA SUR,Los Cabos,Cabo San Lucas,,22.89719404,-109.92227106
6916454,CONSULTORIO NUTRICIONAL,GENERAL MANUEL MARQUEZ DE LEON,,COLONIA,ZONA CENTRO,23000.0,BAJA CALIFORNIA SUR,La Paz,La Paz,3316910217.0,24.14792679,-110.31350727
8942944,CONSULTORIO NUTRICIONAL,FORJADORES DE SUDCALIFORNIA,0.0,COLONIA,LAS GARZAS,23098.0,BAJA CALIFORNIA SUR,La Paz,La Paz,,24.13516179,-110.31219367
173358,CONSULTORIOS DE NUTRIÓLOGOS Y DIETISTAS DEL SECTOR PRIVADO,CONSTITUCION,718.0,COLONIA,CENTRO,23000.0,BAJA CALIFORNIA SUR,La Paz,La Paz,,24.15972809,-110.30762253
8210849,DIANA PEÑUELAS NUTRIOLOGA,ILDEFONSO GREEN,,COLONIA,MARIANO MATAMOROS,23470.0,BAJA CALIFORNIA SUR,Los Cabos,Cabo San Lucas,6241439509.0,22.89557962,-109.92037029
8211201,EQUILIBRIO SALUDABLE,MIGUEL HIDALGO Y COSTILLA,,COLONIA,LOMAS ALTAS,23470.0,BAJA CALIFORNIA SUR,Los Cabos,Cabo San Lucas,,22.89909446,-109.92641611
8402769,EQUINUT CONSULTORIO NUTRICIONAL,BAJA CALIFORNIA,,LOCALIDAD,EJIDO EL CENTENARIO,23201.0,BAJA CALIFORNIA SUR,La Paz,El Centenario,6121686097.0,24.10077488,-110.41258101
6941834,ESBELTICA,CONSTITUYENTES DE 1975,4765.0,COLONIA,EL CONCHALITO,23090.0,BAJA CALIFORNIA SUR,La Paz,La Paz,,24.13577862,-110.33899531
179450,ESBELTICA PROYECTA,SAN ANTONIO,,COLONIA,ARCOS DEL SOL 1,23474.0,BAJA CALIFORNIA SUR,Los Cabos,Cabo San Lucas,,22.90028048,-109.92743417
165158,ESTETIC ADVANCE,PLAYA DE MAYORCA,,COLONIA,PUEBLO NUEVO,23020.0,BAJA CALIFORNIA SUR,La Paz,La Paz,6123489387.0,24.14079473,-110.31609286
8797825,LAB NUTRICION CLINICA DE PESO,CABO SAN LUCAS,27.0,COLONIA,LIENZO CHARRO CENTRO,23453.0,BAJA CALIFORNIA SUR,Los Cabos,Cabo San Lucas,,22.88557869,-109.91673464
163648,LICENCIADO EN NUTRICION MARIO ARAIZA BERTIN,5 DE MAYO,560.0,COLONIA,ZONA CENTRO,23000.0,BAJA CALIFORNIA SUR,La Paz,La Paz,,24.15980293,-110.30967827
7090354,MEDI CRO NUTRIOLOGA,CABO SAN LUCAS,,COLONIA,MARIANO MATAMOROS,23468.0,BAJA CALIFORNIA SUR,Los Cabos,Cabo San Lucas,6243583678.0,22.895909600000003,-109.92367942
8334678,MEDIFIT,FORJADORES DE SUDCALIFORNIA,,COLONIA,ADOLFO RUIZ CORTINEZ,23040.0,BAJA CALIFORNIA SUR,La Paz,La Paz,,24.13302027,-110.31183893
9253434,NU3 PIERDE MAS KILOS,20 DE NOVIEMBRE,,COLONIA,PUEBLO NUEVO,23678.0,BAJA CALIFORNIA SUR,Comondú,Ciudad Constitución,,25.03158335,-111.65442448
6942016,NUTRA HEALTH,BELISARIO DOMINGUEZ,2245.0,COLONIA,EL MANGLITO,23060.0,BAJA CALIFORNIA SUR,La Paz,La Paz,,24.14700964,-110.32841466
183611,NUTRI CABO,NINGUNO,,COLONIA,GUAYMITAS,23407.0,BAJA CALIFORNIA SUR,Los Cabos,San José del Cabo,,23.07561251,-109.70508871
185518,NUTRICION CLINICA Y DEPORTIVA,CALLE DEL BARCO,,COLONIA,MAURICIO CASTRO,23443.0,BAJA CALIFORNIA SUR,Los Cabos,San José del Cabo,,23.05957269,-109.70677611
8334382,NUTRICION CLINICA Y PSICOLOGICA,5 DE FEBRERO,,COLONIA,CENTRO,23000.0,BAJA CALIFORNIA SUR,La Paz,La Paz,6121541382.0,24.14768745,-110.32088529
7816042,NUTRICION Y BIENESTAR INTEGRAL,ILDEFONSO GREEN,261.0,COLONIA,3 DE MAYO,23070.0,BAJA CALIFORNIA SUR,La Paz,La Paz,,24.11137677,-110.32028123
173395,NUTRIOLOGA MARCELA ALEJANDRA MARTINEZ CESEÑA,IGNACIO MANUEL ALTAMIRANO,,COLONIA,ZONA CENTRO,23000.0,BAJA CALIFORNIA SUR,La Paz,La Paz,6121228110.0,24.15798834,-110.31036903
8210648,NUTRIOLOGA NUTRION SILUET,AGUAJITOS,,COLONIA,ARCOS DEL SOL,23474.0,BAJA CALIFORNIA SUR,Los Cabos,Cabo San Lucas,,22.90533053,-109.93079315
6916800,PATTY ASESORIA NUTRICIONAL,NINGUNO,,COLONIA,ZONA CENTRO,23000.0,BAJA CALIFORNIA SUR,La Paz,La Paz,,24.14731537,-110.31978186
8403112,PATTY ASESORIA NUTRICIONAL,5 DE FEBRERO,,COLONIA,ZONA CENTRO,23000.0,BAJA CALIFORNIA SUR,La Paz,La Paz,1297746.0,24.14719326,-110.31993974
8766209,RE LIFE,CONSTITUYENTES DE 1975,143.0,FRACCIONAMIENTO,CAMPESTRE,23090.0,BAJA CALIFORNIA SUR,La Paz,La Paz,,24.12739845,-110.34357219
8211323,SIN BISTURI,LEONA VICARIO,,COLONIA,EL CHAMIZAL,23470.0,BAJA CALIFORNIA SUR,Los Cabos,Cabo San Lucas,6241436853.0,22.90130923,-109.91967895
8210667,SUNRISE NUTRITION,ADOLFO LOPEZ MATEOS,,COLONIA,MARIANO MATAMOROS,23470.0,BAJA CALIFORNIA SUR,Los Cabos,Cabo San Lucas,4491055621.0,22.89800009,-109.91883119
174497,UNIDEM,LICENCIADO PRIMO VERDAD,2020.0,COLONIA,ZONA CENTRO,23000.0,BAJA CALIFORNIA SUR,La Paz,La Paz,,24.15097674,-110.31025619
7513250,VIVE SANO,HEROES DE LA INDEPENDENCIA,,COLONIA,CALLE,23880.0,BAJA CALIFORNIA SUR,Loreto,Loreto,,26.01079812,-111.34771491
7440305,CENTRO INTEGRAL ESTETICO MEDICO,JUSTO SIERRA,34.0,COLONIA,CAMARONEROS,24169.0,CAMPECHE,Carmen,Ciudad del Carmen,9381737478.0,18.65024676,-91.81650376
8233809,CENTRO MEDICO CAMPECHE CONSULTORIO DE NUTRICION,LICENCIADO LUIS DONALDO COLOSIO MURRIETA,258.0,COLONIA,BICENTENARIO 1 Y 2,24040.0,CAMPECHE,Campeche,San Francisco de Campeche,9818216136.0,19.83093104,-90.53939807
7216946,CLINICA ZEGO,47,20.0,BARRIO,GUADALUPE,24010.0,CAMPECHE,Campeche,San Francisco de Campeche,9811691830.0,19.84695836,-90.53059183
7321864,CONSULTORIO CENTRO NUTRICIONAL,NARCISO MENDOZA,,BARRIO,SAN JOSE,24040.0,CAMPECHE,Campeche,San Francisco de Campeche,9811390901.0,19.83424059,-90.53574437
8428133,CONSULTORIO DE MEDICINA Y NUTRICION SIN NOMBRE,AZUCENAS,15.0,COLONIA,LOS LAURELES,24096.0,CAMPECHE,Campeche,San Francisco de Campeche,,19.8158189,-90.5260497
8427849,CONSULTORIO DE NUTRICION,ADOLFO LOPEZ MATEOS,,COLONIA,SAN ROMAN,24040.0,CAMPECHE,Campeche,San Francisco de Campeche,9812071849.0,19.83876457,-90.53898983
8233566,CONSULTORIO DE NUTRICIÓN,12,253.0,COLONIA,SAN ROMAN,24040.0,CAMPECHE,Campeche,San Francisco de Campeche,9811591455.0,19.840865700000002,-90.54352275
196866,CONSULTORIO DE NUTRICION,LAZARO CARDENAS,,FRACCIONAMIENTO,FRACCIORAMA 2000,24090.0,CAMPECHE,Campeche,San Francisco de Campeche,9811320868981.0,19.82797966,-90.52675941
7431071,CONSULTORIO DE NUTRICION FIT LINE,34,,COLONIA,SALSIPUEDES I,24350.0,CAMPECHE,Escárcega,Escárcega,9821033663.0,18.60665391,-90.72969102
7216901,CONSULTORIO DE NUTRICION SIN NOMBRE,SIRIS,10.0,FRACCIONAMIENTO,FRACC BOSQUES DE CAMPECHE,24030.0,CAMPECHE,Campeche,San Francisco de Campeche,9811007788.0,19.83092681,-90.55512931
8233788,CONSULTORIO DE NUTRICION SIN NOMBRE,31-A,18.0,COLONIA,AVIACION,24170.0,CAMPECHE,Carmen,Ciudad del Carmen,9381370906.0,18.64343995,-91.82520865
219329,CONSULTORIO NUTRICIONAL,36,29.0,COLONIA,PUNTILLA,24139.0,CAMPECHE,Carmen,Ciudad del Carmen,9381048183.0,18.63178759,-91.82731522
8224439,CONSULTORIO NUTRICIONAL,JUSTO SIERRA MENDEZ,,COLONIA,SAL SI PUEDES,24350.0,CAMPECHE,Escárcega,Escárcega,9817514294.0,18.60579656,-90.73096176
7091585,CONSULTORIO NUTRICIONAL,20,,BARRIO,CENTRO,24920.0,CAMPECHE,Calkiní,Dzitbalché,,20.32140102,-90.05580805
189852,CONSULTORIO NUTRICIONAL BALANCE VITAL,PAEZ URQUIDI,,COLONIA,TECOLUTLA,24178.0,CAMPECHE,Carmen,Ciudad del Carmen,9383822138.0,18.64861637,-91.83100535
7439611,CONSULTORIO NUTRICIONAL PERLA PAGES,10 DE JULIO,103.0,COLONIA,BENITO JUAREZ,24180.0,CAMPECHE,Carmen,Ciudad del Carmen,9381641083.0,18.64014471,-91.81854513
8160337,KLINICA KLINE CAMPECHE,ADOLFO RUIZ CORTINES,24.0,ZONA COMERCIAL,AH KIM PECH,24010.0,CAMPECHE,Campeche,San Francisco de Campeche,9811687670.0,19.84893437,-90.53726243
7216882,NUTRICION CLINICA Y MANEJO INTEGRAL DE LA OBESIDAD,JUAREZ,4.0,BARRIO,GUADALUPE,24010.0,CAMPECHE,Campeche,San Francisco de Campeche,9811204910.0,19.84864826,-90.53323089
7321575,NUTRIOLOGA ANGELA VILLANUEVA LUGO,MARTINEZ DOMINGUEZ,,BARRIO,BELEN,24050.0,CAMPECHE,Campeche,San Francisco de Campeche,9811053776.0,19.83559553,-90.53448172
8428484,PRODUCTOS SALUDABLES,10,439.0,BARRIO,SAN ROMAN,24040.0,CAMPECHE,Campeche,San Francisco de Campeche,9811452370.0,19.84043748,-90.54651523
8917264,REDU-FACIL,CONCORDIA,,ZONA COMERCIAL,PLAZA REAL,24179.0,CAMPECHE,Carmen,Ciudad del Carmen,9381310130.0,18.65041205,-91.81118669
195549,SALUD Y VIDA,ADOLFO LOPEZ MATEOS,254.0,BARRIO,PRADO,24040.0,CAMPECHE,Campeche,San Francisco de Campeche,,19.83360356,-90.54709681
219653,SANA NUTRICION,58,,COLONIA,FATIMA,24110.0,CAMPECHE,Carmen,Ciudad del Carmen,9381455723.0,18.65261223,-91.82468321
8491846,SERVICIO DE NUTRIOLOGA SIN NOMBRE,LA MALINCHE,,COLONIA,VOLCANES,24150.0,CAMPECHE,Carmen,Ciudad del Carmen,9381419032.0,18.64437012,-91.78453148
7217268,SVELTTYA BELLEZA INTEGRAL,CIRICOTE,2.0,FRACCIONAMIENTO,FLOR DE LIMON,24069.0,CAMPECHE,Campeche,San Francisco de Campeche,9818299868.0,19.83140025,-90.52559095
210661,UNIDAD MEDICA NUTRICIONAL UMN,LLOVIZNA,91.0,COLONIA,FRACCIORAMA 2000,24090.0,CAMPECHE,Campeche,San Francisco de Campeche,,19.82680097,-90.52725515
8674347,3.0,FELIPE ANGELES,3820.0,COLONIA,CUMBRE,25270.0,COAHUILA DE ZARAGOZA,Saltillo,Saltillo,,25.45140384,-100.97485052
268783,ALLURE,RUFINO TAMAYO,170.0,COLONIA,DOCTORES,25253.0,COAHUILA DE ZARAGOZA,Saltillo,Saltillo,8444311443.0,25.45979194,-100.97346278
244077,ANTICELULITIS CENTER Y SPA TEMAZCAL,MIGUEL HIDALGO,1613.0,COLONIA,FRANCISCO I.MADERO,26200.0,COAHUILA DE ZARAGOZA,Acuña,Ciudad Acuña,,29.32423787,-100.94623067
6933498,ASESORIA NUTRISIONAL Y CONTROL DE PESO,LEONA VICARIO,903.0,COLONIA,EJIDAL,27440.0,COAHUILA DE ZARAGOZA,Matamoros,Matamoros,,25.53219722,-103.23730241
7040762,BOOM CHIC,RIO SABINAS,97.0,COLONIA,ESTRELLA,27010.0,COAHUILA DE ZARAGOZA,Torreón,Torreón,,25.56792834,-103.42080854
8165186,CASA HELENA,RIO DE LA PLATA,214.0,COLONIA,NAVARRO,27010.0,COAHUILA DE ZARAGOZA,Torreón,Torreón,,25.56033795,-103.4323662
6997769,CENTRO DE NUTRICION,JOSE MARIA MORELOS,150.0,MANZANA,ZONA CENTRO,25500.0,COAHUILA DE ZARAGOZA,San Buenaventura,San Buenaventura,,27.06284832,-101.54834806
285875,CENTRO DE NUTRICION,ESCOBEDO,686.0,COLONIA,CENTRO,27000.0,COAHUILA DE ZARAGOZA,Torreón,Torreón,,25.54399381,-103.44112097
7040428,CENTRO DE NUTRICION,RAMON MENDEZ,3030.0,COLONIA,CENTRO,27000.0,COAHUILA DE ZARAGOZA,Torreón,Torreón,,25.54217978,-103.41461428
6490549,CENTRO DE TERAPIA NUTRICIONAL CONSULTORIO,LA ENRAMADA,230.0,FRACCIONAMIENTO,LOS ARCOS,25060.0,COAHUILA DE ZARAGOZA,Saltillo,Saltillo,,25.39493133,-100.99380437
7040639,CLINICA BAJO 100,RIO NILO,801.0,COLONIA,ESTRELLA,27010.0,COAHUILA DE ZARAGOZA,Torreón,Torreón,,25.5617499,-103.42286198
7695404,CLINICA DE NUTRICION,HAROLD R. PAPE,,COLONIA,JARDINES DEL VALLE,25730.0,COAHUILA DE ZARAGOZA,Monclova,Monclova,,26.93285993,-101.41522558
8698125,CLINICA DE NUTRICION DEPORTIVA PROFESIONAL SLMF GYM,16 DE SEPTIEMBRE,803.0,COLONIA,FRACC SAN JOSE,26014.0,COAHUILA DE ZARAGOZA,Piedras Negras,Piedras Negras,,28.70265875,-100.54145241
7711077,CLINICA DE NUTRICION NUTRIGED,EUGENIO AGUIRRE BENAVIDES,155.0,COLONIA,LUIS ECHEVERRIA ALVAREZ,27000.0,COAHUILA DE ZARAGOZA,Torreón,Torreón,8441106721.0,25.53964887,-103.43947062
7435464,CLINICA DE NUTRICION NUTRILIFE,DISTRITO FEDERAL,2011.0,COLONIA,REPUBLICA PONIENTE,25265.0,COAHUILA DE ZARAGOZA,Saltillo,Saltillo,8446221999.0,25.43981024,-100.99557606
234367,CLINICA DE NUTRICION Y DIABETES,CENTENARIO,1198.0,COLONIA,BRAVO,26030.0,COAHUILA DE ZARAGOZA,Piedras Negras,Piedras Negras,,28.68945345,-100.51672964
285969,CLINICA DEL NORTE,FRANCISCO I. MADERO,16.0,COLONIA,CENTRO,27000.0,COAHUILA DE ZARAGOZA,Torreón,Torreón,8712675432.0,25.54152882,-103.44048965
7283716,CLINICA INNOVA,PADRE DE LAS CASAS,307.0,COLONIA,CENTRO,26000.0,COAHUILA DE ZARAGOZA,Piedras Negras,Piedras Negras,,28.70507217,-100.51658218
8435096,CLINICA NUTRA,MOCTEZUMA,1644.0,RESIDENCIAL,LOS PINOS. I SECTOR,25198.0,COAHUILA DE ZARAGOZA,Saltillo,Saltillo,,25.46538202,-100.96593923
8631232,CLINICA NUTRICION,ABASOLO,5.0,COLONIA,PIEDRAS NEGRAS CENTRO,26000.0,COAHUILA DE ZARAGOZA,Piedras Negras,Piedras Negras,,28.70576134,-100.52075252
8630909,CLINICA NUTRICION EN AVANCE,LAS AMERICAS,749.0,COLONIA,LATINOAMERICANA,25270.0,COAHUILA DE ZARAGOZA,Saltillo,Saltillo,8441003323.0,25.44756493,-100.98192970000001
306231,CLINICA PARA REDUCCION DE PESO,ANTONIO DE JUAMBELZ (CALLE 32),3250.0,COLONIA,CENTRO,27000.0,COAHUILA DE ZARAGOZA,Torreón,Torreón,8717218787.0,25.54164104,-103.41394291
236704,CLINICA PRINSO,XICOTENCATL,906.0,COLONIA,SALTILLO ZONA CENTRO,25000.0,COAHUILA DE ZARAGOZA,Saltillo,Saltillo,8444107771.0,25.43070971,-101.00104976
7289681,CLINICA VELARD,BENITO JUAREZ,106.0,COLONIA,CENTRO,27800.0,COAHUILA DE ZARAGOZA,San Pedro,San Pedro,8721214352.0,25.75742729,-102.98085185
260972,CONSULTAORIO ZANA SANA,LA HERRERIA,117.0,FRACCIONAMIENTO,JARDINES DE LA FLORIDA,25296.0,COAHUILA DE ZARAGOZA,Saltillo,Saltillo,8441413444.0,25.44634999,-100.95734646
7711642,CONSULTORIA NUTRIOLOGA,CUAUHTEMOC,,COLONIA,CENTRO,27440.0,COAHUILA DE ZARAGOZA,Matamoros,Matamoros,,25.53128708,-103.2323089
7696731,CONSULTORIO DE MEDICINA ESTETICA,LAS QUINTAS,450.0,RESIDENCIAL,EJIDO IGNACIO ALLENDE,27018.0,COAHUILA DE ZARAGOZA,Torreón,Torreón,,25.57435241,-103.40728252
7696735,CONSULTORIO DE METABOLISMO Y NUTRICION CLINICA,LAS QUINTAS,450.0,RESIDENCIAL,EJIDO IGNACIO ALLENDE,27018.0,COAHUILA DE ZARAGOZA,Torreón,Torreón,,25.57435241,-103.40728252
9145630,CONSULTORIO DE NUTRICION,ESCOBEDO,1150.0,CIUDAD,TORREON,27000.0,COAHUILA DE ZARAGOZA,Torreón,Torreón,,25.54397997,-103.4361729
8160869,CONSULTORIO DE NUTRICION,JUAN N. ALVAREZ,845.0,COLONIA,SALTILLO ZONA CENTRO,25000.0,COAHUILA DE ZARAGOZA,Saltillo,Saltillo,8444322162.0,25.43107985,-101.00451192
241913,CONSULTORIO DE NUTRICION,MIGUEL HIDALGO,150.0,COLONIA,CENTRO,26700.0,COAHUILA DE ZARAGOZA,Sabinas,Sabinas,,27.85392514,-101.12561554
7467021,CONSULTORIO DE NUTRICION,AVENIDA DE LOS CIPRES,,FRACCIONAMIENTO,LOS CIPRECES,25267.0,COAHUILA DE ZARAGOZA,Saltillo,Saltillo,8448077320.0,25.45385022,-100.95334208
249647,CONSULTORIO DE NUTRICION,HIDALGO,1402.0,BARRIO,CASA AZUL,26340.0,COAHUILA DE ZARAGOZA,Múzquiz,Ciudad Melchor Múzquiz,,27.88597128,-101.52672283
7710856,CONSULTORIO DE NUTRICION NUTRIOLOGY ZONE,ALDAMA,67.0,COLONIA,AMPL LOS ANGELES,27000.0,COAHUILA DE ZARAGOZA,Torreón,Torreón,8718879437.0,25.5470544,-103.44785407
7289465,CONSULTORIO DE NUTRICION Y MEDICINA,DOCTOR CRISTIAN BERNARD,499.0,COLONIA,ALPES,25253.0,COAHUILA DE ZARAGOZA,Saltillo,Saltillo,8442113645.0,25.45859942,-100.97422274
6427324,CONSULTORIO DE NUTRIOLOGIA,LUIS DONALDO COLOSIO,,COLONIA,RANCHO DE PEÑA,25220.0,COAHUILA DE ZARAGOZA,Saltillo,Saltillo,4117076.0,25.47828242,-100.97823389
7682373,CONSULTORIO DE NUTRIOLOGIA SIN NOMBRE,ATENEO,615.0,COLONIA,SANTA MARTHA,25000.0,COAHUILA DE ZARAGOZA,Saltillo,Saltillo,,25.41888012,-100.99646156
7009556,CONSULTORIO MEDICO DE BARIATRIA Y NUTRICION CLINICA,JUAN E. GARCIA,302.0,COLONIA,CENTRO,27000.0,COAHUILA DE ZARAGOZA,Torreón,Torreón,8713479927.0,25.53813326,-103.43863221
294330,CONSULTORIO TU NUEVA IMAGEN,TORREON,182.0,COLONIA,LA MINA,27055.0,COAHUILA DE ZARAGOZA,Torreón,Torreón,8717641118.0,25.55344866,-103.37146246
7290290,CONSULTORIOS DE NUTRIÓLOGOS Y DIETISTAS DEL SECTOR PRIVADO,GENERAL Y DOCTOR JOSE MARIA RODRIGUEZ,719.0,COLONIA,DOCTORES,25253.0,COAHUILA DE ZARAGOZA,Saltillo,Saltillo,8441594963.0,25.45964669,-100.97367888
7009735,CONSULTORIOS DE NUTRIÓLOGOS Y DIETISTAS DEL SECTOR PRIVADO,NIÑOS HEROES,269.0,CIUDAD,TORREON CENTRO,27000.0,COAHUILA DE ZARAGOZA,Torreón,Torreón,8712171020.0,25.54381128,-103.43648947
8161186,CONSULTORIOS DE NUTRIÓLOGOS Y DIETISTAS DEL SECTOR PRIVADO,ANAHUAC,,COLONIA,CENTRO,26000.0,COAHUILA DE ZARAGOZA,Piedras Negras,Piedras Negras,,28.7053155,-100.52190046
9152591,CONSULTORIOS DE NUTRIÓLOGOS Y DIETISTAS DEL SECTOR PRIVADO,VENUSTIANO CARRANZA,4036.0,COLONIA,LOS LAGOS,25235.0,COAHUILA DE ZARAGOZA,Saltillo,Saltillo,,25.46216626,-100.98189596
8355776,CONSULTORIOS DE NUTRIÓLOGOS Y DIETISTAS DEL SECTOR PRIVADO,BRASIL,995.0,FRACCIONAMIENTO,LOS ANGELES,25270.0,COAHUILA DE ZARAGOZA,Saltillo,Saltillo,8448930082.0,25.44734223,-100.97951059
269886,CONTROL DE PESO,CALLE DEL CERRITO,108.0,COLONIA,COL. JARDINES DEL VALLE,25260.0,COAHUILA DE ZARAGOZA,Saltillo,Saltillo,8441348623.0,25.4403266,-101.00210786
8355580,CS PATRICIO NUTRIOLOGA,PASEO DE SAN PATRICIO,275.0,RESIDENCIAL,SAN PATRICIO,25204.0,COAHUILA DE ZARAGOZA,Saltillo,Saltillo,,25.458068700000002,-100.95589183
246311,CUERPO BELLO,MORELOS,105.0,COLONIA,CENTRO,26000.0,COAHUILA DE ZARAGOZA,Piedras Negras,Piedras Negras,,28.70292433,-100.51537796
7711027,DOCTORA ANA LILIA G0NZALEZ RODRIGUEZ,HIDALGO,1440.0,COLONIA,CENTRO,27000.0,COAHUILA DE ZARAGOZA,Torreón,Torreón,,25.53726386,-103.43199502
229381,DR JESUS ANGEL PADILLA,VENUSTIANO CARRANZA,3101.0,COLONIA,AMPLIACION KIOSCO,25240.0,COAHUILA DE ZARAGOZA,Saltillo,Saltillo,8444153433.0,25.45096241,-100.98775633
7435686,DULCENUTRICION ES BIENESTAR,FELIPE ANGELES,1124.0,COLONIA,TOPO CHICO,25284.0,COAHUILA DE ZARAGOZA,Saltillo,Saltillo,8443295902.0,25.42990713,-100.98557729
7467215,ENERGIA VITAL,DIEGO DE AGUIRRE,233.0,FRACCIONAMIENTO,FUNDADORES,25015.0,COAHUILA DE ZARAGOZA,Saltillo,Saltillo,8444370792.0,25.41261615,-100.95088513
9065729,ESPECIALIDADES SOLO CONSULTORIOS,CORREGIDORA,1201.0,COLONIA,EL TECNOLOGICO,25716.0,COAHUILA DE ZARAGOZA,Monclova,Monclova,,26.92155329,-101.43759578
299469,ESSPA CENTRO DE REDUCCION,ALLENDE,177.0,COLONIA,AMPL LOS ANGELES,27000.0,COAHUILA DE ZARAGOZA,Torreón,Torreón,,25.5412083,-103.45137804
8164618,ESTETICA MEDICA,CENTRAL,1802.0,COLONIA,TORREON JARDIN,27220.0,COAHUILA DE ZARAGOZA,Torreón,Torreón,,25.526886800000003,-103.41835054
8631014,HEALTY TO YOU,VENUSTIANO CARRANZA,,COLONIA,AMPLIACION KIOSCO,25240.0,COAHUILA DE ZARAGOZA,Saltillo,Saltillo,8441360982.0,25.45023354,-100.98813569
243930,HR NUTRICION,JUSTO SIERRA,,COLONIA,BENITO JUAREZ,26215.0,COAHUILA DE ZARAGOZA,Acuña,Ciudad Acuña,,29.33067706,-100.93958519
7009914,INTEGRAL BESITY CARE,MORELOS,239.0,COLONIA,TORREON CENTRO,27000.0,COAHUILA DE ZARAGOZA,Torreón,Torreón,,25.53915655,-103.43524878
311504,LEAL CLINIC,OAXACA,504.0,COLONIA,GUADALUPE,25750.0,COAHUILA DE ZARAGOZA,Monclova,Monclova,,26.91146773,-101.43064237
9217589,LIC. BLANCA MORALES NUTRIOLOGA,IGNACIO ALLENDE,885.0,COLONIA,ZONA CENTRO,26170.0,COAHUILA DE ZARAGOZA,Nava,Nava,,28.42269169,-100.77483743
7266408,LIFELIGHT WEIGHT LOSS & HAIR RECOVERY,HAROLD R. PAPE,1603.0,COLONIA,JARDINES DEL VALLE,25730.0,COAHUILA DE ZARAGOZA,Monclova,Monclova,,26.92319279,-101.42100325
8355967,M.R. DENTAL,DON JUAN SAADE MURRA,,FRACCIONAMIENTO,LOS TULIPANES,25204.0,COAHUILA DE ZARAGOZA,Saltillo,Saltillo,,25.4521061,-100.95219282
7683354,MDS,FRANCISCO I. MADERO,567.0,COLONIA,COAHUILA,26700.0,COAHUILA DE ZARAGOZA,Sabinas,Sabinas,,27.85294201,-101.12432686
286079,MEDICA INTEGRAL CONSULTORIO DE NUTRICION,MATAMOROS,1059.0,COLONIA,CENTRO,27000.0,COAHUILA DE ZARAGOZA,Torreón,Torreón,,25.54030999,-103.43689149
7273057,METAMORFOSIS CLINICA DE NUTRICION,SALTO DEL AGUA,1313.0,COLONIA,MANANTIALES DEL VALLE,25900.0,COAHUILA DE ZARAGOZA,Ramos Arizpe,Ramos Arizpe,,25.51850925,-100.93793927
8722592,NU3,16 DE SEPTIEMBRE,120.0,FRACCIONAMIENTO,LOS ALAMOS,26000.0,COAHUILA DE ZARAGOZA,Piedras Negras,Piedras Negras,8781341906.0,28.70912345,-100.52450959999999
7683381,NUBELL,MELCHOR OCAMPO,202.0,COLONIA,CENTRO,26530.0,COAHUILA DE ZARAGOZA,Allende,Allende,8626214142.0,28.34094918,-100.85350756
7710854,NUTRASANA-NUTRICION-,CRISTOBAL COLON,401.0,COLONIA,AMPL LOS ANGELES,27000.0,COAHUILA DE ZARAGOZA,Torreón,Torreón,8712217928.0,25.54519596,-103.44877816
8631084,NUTRI SANO,INGENIERO JOSE CARDENAS VALDEZ,505.0,COLONIA,ATENEO,25280.0,COAHUILA DE ZARAGOZA,Saltillo,Saltillo,8442754621.0,25.44022839,-100.98742471
7467237,NUTRIARTE,DOLORES HIDALGO,113.0,FRACCIONAMIENTO,GUANAJUATO ORIENTE,25286.0,COAHUILA DE ZARAGOZA,Saltillo,Saltillo,8441075065.0,25.43851693,-100.97840373
7283017,NUTRICION,DOCTOR COSS,405.0,COLONIA,CENTRO,26000.0,COAHUILA DE ZARAGOZA,Piedras Negras,Piedras Negras,,28.69900435,-100.51454042
9269468,NUTRICION  CLINICA DEPERTIVA,CALLE DE LA CARABELA,,COLONIA,VILLAS DE LA HACIENDA,27274.0,COAHUILA DE ZARAGOZA,Torreón,Torreón,,25.5170176,-103.38352882
290701,NUTRICION PERSONALIZADA,DURANGO,2224.0,COLONIA,INDEPENDENCIA,26830.0,COAHUILA DE ZARAGOZA,San Juan de Sabinas,Nueva Rosita,8616141653.0,27.939256,-101.21422395
7710910,NUTRICION VIDA  SALUD,CRISTOBAL COLON,75.0,COLONIA,AMPL LOS ANGELES,27000.0,COAHUILA DE ZARAGOZA,Torreón,Torreón,8714790165.0,25.54172631,-103.44879369
9144079,NUTRICION Y BIENESTAR INTEGRAL,JOSE MUSA DE LEON,951.0,FRACCIONAMIENTO,RESIDENCIAL PORTAL DE ARAGON,25100.0,COAHUILA DE ZARAGOZA,Saltillo,Saltillo,,25.45601485,-100.96670009
268841,NUTRICIÓN Y CONTROL DE PESO,NAZARIO S. ORTIZ GARZA,2800.0,COLONIA,LOS LAGOS,25253.0,COAHUILA DE ZARAGOZA,Saltillo,Saltillo,8444391029.0,25.45997278,-100.97825004
268285,NUTRICION Y CONTROL DE PESO,PEDRO FIGUEROA SILLER,546.0,AMPLIACION,LOS DOCTORES,25250.0,COAHUILA DE ZARAGOZA,Saltillo,Saltillo,,25.46895561,-100.97272642
242461,NUTRICION Y VIDA,GENERAL FRANCISCO VILLA,,COLONIA,CENTRO,26700.0,COAHUILA DE ZARAGOZA,Sabinas,Sabinas,,27.85110249,-101.12722021
7009655,NUTRICIONSANA,GONZALEZ ORTEGA,563.0,COLONIA,CENTRO,27000.0,COAHUILA DE ZARAGOZA,Torreón,Torreón,8711030599.0,25.54659872,-103.44648704
7040761,NUTRIFIKT,RIO SABINAS,64.0,COLONIA,ESTRELLA,27010.0,COAHUILA DE ZARAGOZA,Torreón,Torreón,8712340135.0,25.5681455,-103.42124342
7266455,NUTRIHELP,LOS REYES,1001.0,COLONIA,TECONOLOGICO,25660.0,COAHUILA DE ZARAGOZA,Monclova,Monclova,,26.92122618,-101.43845309999999
9126452,NUTRIOLOGA,PARRAS,615.0,COLONIA,HIPODROMO,25740.0,COAHUILA DE ZARAGOZA,Monclova,Monclova,8661552899.0,26.91427049,-101.40665548
6997757,NUTRIOLOGA,CONSTITUCION,75.0,COLONIA,CENTRO,27900.0,COAHUILA DE ZARAGOZA,Francisco I. Madero,Francisco I. Madero (Chávez),,25.77644683,-103.27276867
8225221,NUTRIOLOGA DANIELA ALEJANDRA SOLIS GOMEZ,RIO MISSISSIPPI,327.0,COLONIA,MANANTIALES DEL VALLE,25900.0,COAHUILA DE ZARAGOZA,Ramos Arizpe,Ramos Arizpe,8443501905.0,25.51732759,-100.93873175
8943103,NUTRIOLOGA JANETH,MOCTEZUMA,2574.0,RESIDENCIAL,SAN PATRICIO,25204.0,COAHUILA DE ZARAGOZA,Saltillo,Saltillo,8447649631.0,25.46154818,-100.95870052
7467243,NUTRIVITAL,MARIANO ABASOLO,3565.0,FRACCIONAMIENTO,ALPES,25270.0,COAHUILA DE ZARAGOZA,Saltillo,Saltillo,8441396979.0,25.44943874,-100.9772881
7310723,PESO IDEAL,OCAMPO PONIENTE,,COLONIA,CENTRO,25700.0,COAHUILA DE ZARAGOZA,Monclova,Monclova,8666388289.0,26.90020711,-101.42558034
7695777,PROTEIN CLUB,LIBERTAD,518.0,COLONIA,INDEPENDENCIA,25680.0,COAHUILA DE ZARAGOZA,Frontera,Frontera,8661073806.0,26.91557009,-101.45671652
6701933,QUITA KILOS,PASEO DE LA ROSITA,417.0,COLONIA,CAMPESTRE LA ROSITA,,COAHUILA DE ZARAGOZA,Torreón,Torreón,,25.52872969,-103.41544671
269055,QUITA KILOS,UNIVERSIDAD,1080.0,COLONIA,INSURGENTES,25260.0,COAHUILA DE ZARAGOZA,Saltillo,Saltillo,8441345213.0,25.44421205,-101.00078357
261615,QUITAKILOS,RAMON GARZA DE LA ROSA,,FRACCIONAMIENTO,MAGISTERIO,25034.0,COAHUILA DE ZARAGOZA,Saltillo,Saltillo,8182524276.0,25.4367026,-100.95528608
6300913,QUITAKILOS SA DE CV,COLIMA,509.0,COLONIA,PINOS,25720.0,COAHUILA DE ZARAGOZA,Monclova,Monclova,,26.92002828,-101.42584032
299445,SALUD Y VIDA,CRISTOBAL COLON,77.0,COLONIA,CENTRO,27000.0,COAHUILA DE ZARAGOZA,Torreón,Torreón,8713479952.0,25.54181517,-103.44879336
7267005,SANAMENTE NUTRICION,BRASIL,0.0,COLONIA,CIUDAD DEPORTIVA,25750.0,COAHUILA DE ZARAGOZA,Monclova,Monclova,8661414882.0,26.90505997,-101.43905801
7697004,SANO NUTRIOLOGA,CONSTITUCION,1919.0,COLONIA,SAN ISIDRO,27104.0,COAHUILA DE ZARAGOZA,Torreón,Torreón,,25.57048885,-103.42825862
7695973,SANOCULTO,FRANCISCO I. MADERO,559.0,COLONIA,GUADALUPE,25750.0,COAHUILA DE ZARAGOZA,Monclova,Monclova,,26.9164386,-101.43466863
8837736,SBELTA,FRESNOS,220.0,FRACCIONAMIENTO,GUSTAVO DIAZ ORDAZ,25297.0,COAHUILA DE ZARAGOZA,Saltillo,Saltillo,8441074754.0,25.45232969,-100.94495784
7009716,SHVS BIENESTAR INTEGRAL,ESCOBEDO,67.0,COLONIA,CENTRO,27000.0,COAHUILA DE ZARAGOZA,Torreón,Torreón,8712639928.0,25.54409395,-103.45011138
8355720,SUSTENTABILIDAD Y BIENESTAR AMBIENTAL,LUIS ECHEVERRIA,1582.0,FRACCIONAMIENTO,CUMBRES,25286.0,COAHUILA DE ZARAGOZA,Saltillo,Saltillo,8444431487.0,25.44004393,-100.9753013
288816,UNIDAD MEDICA DE ESPECIALIZADA,PABELLON,105.0,COLONIA,CENTRO,27440.0,COAHUILA DE ZARAGOZA,Matamoros,Matamoros,8717627575.0,25.52870933,-103.22990868
8631197,UNIDAD MEDICA ESPECIALIZADA,SALVADOR GONZALEZ LOBO,134.0,COLONIA,REPUBLICA,25280.0,COAHUILA DE ZARAGOZA,Saltillo,Saltillo,,25.43989845,-100.99330849
8356234,VESANA,LUIS DONALDO COLOSIO,8317.0,FRACCIONAMIENTO,LOS GONZALEZ,25000.0,COAHUILA DE ZARAGOZA,Saltillo,Saltillo,8445043884.0,25.46151864,-100.93725104
8469278,VICARY NUTRICION,CORPUS,1630.0,COLONIA,BUENAVISTA SUR,26040.0,COAHUILA DE ZARAGOZA,Piedras Negras,Piedras Negras,,28.6909588,-100.53303062
311809,VITA NOVA NUTRICION INTEGRAL,REPUBLICA DEL SALVADOR,528.0,COLONIA,GUADALUPE,25750.0,COAHUILA DE ZARAGOZA,Monclova,Monclova,8666362534.0,26.90134149,-101.43088818
8355525,VITA NUTRICION,MANUEL W. GONZALEZ,,COLONIA,GIRASOL,25075.0,COAHUILA DE ZARAGOZA,Saltillo,Saltillo,,25.39208977,-101.01265051
7466843,VITALY CENTRO DE ESPECIALIDADES,CHIAPAS,636.0,COLONIA,REPUBLICA,25280.0,COAHUILA DE ZARAGOZA,Saltillo,Saltillo,8445052700.0,25.4357732,-100.98830874
234734,VITTAL INTEGRAL,MARIANO ABASOLO,3658.0,COLONIA,LOS ALPES,25270.0,COAHUILA DE ZARAGOZA,Saltillo,Saltillo,8441229108.0,25.45032065,-100.97603237
7591513,VIVIR SANO CONSULTORIO INTEGRAL,ALLENDE,1476.0,COLONIA,CENTRO,27100.0,COAHUILA DE ZARAGOZA,Torreón,Torreón,,25.5404805,-103.46528758
7056162,ANA LUNA ASESORIA NUTRICIONAL,CARLOS SILVA G.,303.0,COLONIA,ALFREDO V BONFIL,28979.0,COLIMA,Villa de Álvarez,Ciudad de Villa de Álvarez,3121206129.0,19.27762889,-103.73510481
7061489,ARYA,R. CORONA,285.0,BARRIO,LA CONCORDIA,28000.0,COLIMA,Colima,Colima,,19.23731566,-103.72665531
8555058,ASESORIA NUTRICIONAL,J.MANUEL ALTAMIRANO,478.0,COLONIA,SALAGUA,28869.0,COLIMA,Manzanillo,Manzanillo,3141461479.0,19.11216655,-104.32591538
8555340,BALANCE NUTRICIONAL SPA,LICENCIADO MIGUEL DE LA MADRID HURTADO,801.0,COLONIA,DEL PACIFICO,28210.0,COLIMA,Manzanillo,Manzanillo,,19.08532968,-104.30924181
7863870,BARIATRIA CLINICA,LAPISLAZULI,,FRACCIONAMIENTO,EL HAYA,28983.0,COLIMA,Villa de Álvarez,Ciudad de Villa de Álvarez,3121441682.0,19.27156637,-103.75793945
8481205,BARIATRICA CLINICA INTEGRAL,MEXCALLI,231.0,COLONIA,VILLAIZCALLI,28979.0,COLIMA,Villa de Álvarez,Ciudad de Villa de Álvarez,3121327486.0,19.28882934,-103.73602638
326201,CENTRO DE ATENCIÓN NATURISTA SEMBRADOR DE SALUD,TAMAULIPAS,63.0,COLONIA,CENTRO,28300.0,COLIMA,Armería,Ciudad de Armería,,18.93834218,-103.96699587
8698454,CLINICA ESTETICA BEAUTY ESTHETIC MEDICAL,MIGUEL HIDALGO,104.0,COLONIA,SECT 4,28200.0,COLIMA,Manzanillo,Manzanillo,3141025882.0,19.05160892,-104.31661627
7043168,CLINICA SPA CONTROL Y REDUCCION DE PESO,CAMINO REAL DE COLIMA,300.0,COLONIA,LAS VIBORAS,28040.0,COLIMA,Colima,Colima,3121891731.0,19.24727722,-103.70692318
7864265,COCOON ANTIAGING & HEALTH CENTER,MARTIN LUIS GUZMAN,46.0,COLONIA,MIGUEL HIDALGO,28037.0,COLIMA,Colima,Colima,3123095187.0,19.25561441,-103.71953684
8555559,CONSULTORIO BARIATRIA Y NUTRICION,DE LAS GARZAS,75.0,COLONIA,LAS PALMAS,28869.0,COLIMA,Manzanillo,Manzanillo,3141322133.0,19.10584952,-104.32977953
326908,CONSULTORIO DE MEDICINA ESTETICA,OCAMPO,199.0,COLONIA,CENTRO,28100.0,COLIMA,Tecomán,Tecomán,,18.91211074,-103.87033543
7083854,CONSULTORIO DE NUTRICION,20 DE NOVIEMBRE,460.0,COLONIA,CENTRO,28100.0,COLIMA,Tecomán,Tecomán,3131510504.0,18.9108003,-103.8769939
7917694,CONSULTORIO DE NUTRICION,CONSTITUCION,2149.0,FRACCIONAMIENTO,RES PUERTA DEL SOL,28017.0,COLIMA,Colima,Colima,3121710386.0,19.26889756,-103.70800816
7917697,CONSULTORIO DE NUTRICION,CONSTITUCION,2149.0,FRACCIONAMIENTO,RES PUERTA DEL SOL,28017.0,COLIMA,Colima,Colima,3121509311.0,19.26889756,-103.70800816
7214433,CONSULTORIO DE NUTRICION,PEDRO SALAZAR,10.0,COLONIA,SALAGUA,28869.0,COLIMA,Manzanillo,Manzanillo,3151028061.0,19.10607406,-104.33416421
7111710,CONSULTORIO DE NUTRICION INTEGRAL,ABASOLO,499.0,COLONIA,CENTRO,28100.0,COLIMA,Tecomán,Tecomán,3137305903.0,18.91306127,-103.87693214
7214489,CONSULTORIO DE NUTRICION Y BELLEZA,GENERAL LAZARO CARDENAS,87.0,COLONIA,VALLE SALAGUA,28869.0,COLIMA,Manzanillo,Manzanillo,3141026727.0,19.11139352,-104.33677496
315920,CONSULTORIO DE NUTRIOLOGA SIN NOMBRE,AQUILES SERDAN,600.0,COLONIA,JARDINES RESIDENCIALES,28030.0,COLIMA,Colima,Colima,3121556631.0,19.25634596,-103.7234301
8166058,CONSULTORIO NUTRICION DERMOESTETICA,TORRES ORTIZ SUR,453.0,COLONIA,INDECO,28150.0,COLIMA,Tecomán,Tecomán,,18.90755717,-103.88250169
340855,CONSULTORIO NUTRICIONAL,H. JOSEFA ORTIZ DE DOMINGUEZ,356.0,COLONIA,SAN CARLOS,28970.0,COLIMA,Villa de Álvarez,Ciudad de Villa de Álvarez,3123110636.0,19.26697489,-103.74338730000001
7863969,CONSULTORIO NUTRICIONAL AMITABHA,LUIS GAITAN ARAIZA,200.0,COLONIA,AZALEAS,28979.0,COLIMA,Villa de Álvarez,Ciudad de Villa de Álvarez,3121520171.0,19.27582129,-103.73360872
7056731,CONSULTORIOS DE NUTRIÓLOGOS Y DIETISTAS DEL SECTOR PRIVADO,CONSTITUCION,2141.0,FRACCIONAMIENTO,LOS OLIVOS,28017.0,COLIMA,Colima,Colima,,19.26848015,-103.7082502
7111064,CONSULTORIOS DE NUTRIÓLOGOS Y DIETISTAS DEL SECTOR PRIVADO,16 DE SEPTIEMBRE,440.0,COLONIA,FATIMA,28050.0,COLIMA,Colima,Colima,3125949037.0,19.2476403,-103.73481234
334171,CONSULTORIOS DE NUTRIÓLOGOS Y DIETISTAS DEL SECTOR PRIVADO,CORREGIDORA,275.0,COLONIA,JARDINES DE LA CORREGIDORA,28030.0,COLIMA,Colima,Colima,,19.2499699,-103.72667173
7061827,FREE NUT,IGNACIO ZARAGOZA,267.0,BARRIO,MERCADO OBREGON,28000.0,COLIMA,Colima,Colima,3121161185.0,19.24073785,-103.72291634
7034873,LINDA CABRERA NUTRICION,GENERAL MANUEL ALVAREZ,96.0,COLONIA,CENTRO,28970.0,COLIMA,Villa de Álvarez,Ciudad de Villa de Álvarez,3121439295.0,19.26251958,-103.73384234
7772699,METABOLICA,LA PAZ,76.0,COLONIA,VILLAS PARAISO,28017.0,COLIMA,Colima,Colima,3121332755.0,19.26559843,-103.71401993
8481359,MONICA CORTES NUTRIOLOGA & HEALTH COACH,IGNACIO SANDOVAL,1801.0,COLONIA,GIRASOLES,28018.0,COLIMA,Colima,Colima,,19.26098074,-103.70590568
7083740,NUCLEO MEDICO VIDA,GENERAL SOSTENES ROCHA,399.0,COLONIA,RINCONADA DEL PEREYRA,28077.0,COLIMA,Colima,Colima,3123040111.0,19.23923541,-103.73856885
7083789,NUCLEO MEDICO VIDA NUTRIOLOGO,GENERAL SOSTENES ROCHA,399.0,COLONIA,RINCONADA DEL PEREYRA,28077.0,COLIMA,Colima,Colima,3122090522.0,19.23923541,-103.73856885
9254068,NUTRICION Y SALUD BUCAL,MIGUEL HIDALGO,886.0,COLONIA,ARBOLEDAS DEL CARMEN,28979.0,COLIMA,Villa de Álvarez,Ciudad de Villa de Álvarez,,19.27966523,-103.72917363
7061519,NUTRIOLOGA,VALERIO TRUJANO,150.0,COLONIA,JARDINES DE LA CORREGIDORA,28030.0,COLIMA,Colima,Colima,3121206884.0,19.25167713,-103.72476095
6994535,NUTRIOLOGA,MANUEL ALVAREZ,0.0,COLONIA,ARMERIA CENTRO,28300.0,COLIMA,Armería,Ciudad de Armería,,18.93822507,-103.96495084
8555716,NUTRIOLOGA,PEDRO SALAZAR,18.0,COLONIA,LAS PALMAS,28869.0,COLIMA,Manzanillo,Manzanillo,,19.10667678,-104.33335437
8555755,NUTRIOLOGA,MERCURIO,208.0,COLONIA,FRACC ESMERALDA,28219.0,COLIMA,Manzanillo,Manzanillo,,19.10632772,-104.31121638
8555870,NUTRIOLOGA,ELIAS ZAMORA VERDUZCO,2089.0,COLONIA,FRACC GAVIOTAS,28219.0,COLIMA,Manzanillo,Manzanillo,,19.10961991,-104.31604895
8113062,NUTRIOLOGA ANABELI LOPEZ,ELIAS ZAMORA VERDUZCO,0.0,COLONIA,VALLE DE LAS GARZAS,28219.0,COLIMA,Manzanillo,Manzanillo,,19.1032397,-104.30808842
7042356,NUTRIOLOGA ANALY TOSCANO MARTINEZ,FELIPE SEVILLA DEL RIO,366.0,COLONIA,LOMAS DE VISTA HERMOSA,28016.0,COLIMA,Colima,Colima,,19.25253687,-103.7121804
333934,NUTRIOLOGA GABRIELA VANESSA SALGADO GOMEZ,MORELOS,702.0,COLONIA,SAN PABLO,28000.0,COLIMA,Colima,Colima,,19.23377293,-103.71745421
7056628,NUTRIOLOGA SANDRA GUARDADO ANAYA,CONSTITUCION,2023.0,RESIDENCIAL,SANTA GERTRUDIS,28017.0,COLIMA,Colima,Colima,,19.26485119,-103.71079109
316948,NUTRIOLY,FILOMENO MEDINA,226.0,BARRIO,EL REFUGIO,28000.0,COLIMA,Colima,Colima,,19.24467558,-103.7221593
340025,SERVICIOS DE CONSULTA DE NUTRIOLOGA,AGUSTIN GONZALEZ VILLALOBOS,592.0,COLONIA,EL CENTENARIO,28984.0,COLIMA,Villa de Álvarez,Ciudad de Villa de Álvarez,,19.25611736,-103.75392469
333469,SHEN TI BALANCE,5 DE MAYO,659.0,COLONIA,FATIMA,28050.0,COLIMA,Colima,Colima,,19.25205557,-103.73762937
7061687,SILUETE CENTRO DE CONTROL DE PESO,GABINO BARREDA,751.0,COLONIA,LOMAS DE CIRCUNVALACION,28016.0,COLIMA,Colima,Colima,,19.25425911,-103.71778131
7056686,VITALMEDIC,PALMA RUVELINA,1230.0,COLONIA,RESIDENCIAL SANTA BARBARA,28107.0,COLIMA,Colima,Colima,,19.26506004,-103.71294754
7864156,YIN- YIAO  NUTRICION Y SALUD,MACLOVIO HERRERA,188.0,COLONIA,JARDINES DE LA CORREGIDORA,28030.0,COLIMA,Colima,Colima,3421034290.0,19.250206600000002,-103.72787853
8481524,ZEUS CASA HOLISTICA,RUBEN DARIO,156.0,COLONIA,LOMAS DE CIRCUNVALACION,28010.0,COLIMA,Colima,Colima,3121066424.0,19.25277503,-103.71616248
7082775,ADELGAZARTE,12 DE OCTUBRE,9.0,BARRIO,BELISARIO DOMINGUEZ,30040.0,CHIAPAS,Comitán de Domínguez,Comitán de Domínguez,,16.23185059,-92.13171956
7347208,ALES CONTROL DE PESO,QUINTA SUR PONIENTE,605.0,COLONIA,LA LOMITA,29000.0,CHIAPAS,Tuxtla Gutiérrez,Tuxtla Gutiérrez,9611826787.0,16.75081681,-93.12736251
8063908,ASESORIA NUTRICIONAL VIVE SANO,CENTRAL NORTE,,BARRIO,LAS FLORES,30540.0,CHIAPAS,Pijijiapan,Pijijiapan,9186486095.0,15.687719199999998,-93.2076893
8532346,BEM-ESTAR,MADARIAGA,260.0,FRACCIONAMIENTO,VILLA SAN MARCOS,29010.0,CHIAPAS,Tuxtla Gutiérrez,Tuxtla Gutiérrez,,16.76810222,-93.10338233
402832,CENTRO INTEGRAL DE NUTRICION,PRIMERA ORIENTE SUR,0.0,BARRIO,CENTRO,29930.0,CHIAPAS,Yajalón,Yajalón,,17.17293666,-92.33309946
472554,CENTRO INTEGRAL DE NUTRICION,FLAVIO A. PANIAGUA,81.0,BARRIO,GUADALUPE,29230.0,CHIAPAS,San Cristóbal de las Casas,San Cristóbal de las Casas,9671023060.0,16.7393225,-92.62928143
419502,CLÍNICA DE REDUCCIÓN Y CONTROL DE PESO,DECIMA OCTAVA PONIENTE SUR,683.0,COLONIA,XAMAIPAK,29060.0,CHIAPAS,Tuxtla Gutiérrez,Tuxtla Gutiérrez,,16.75093898,-93.13402697
8230936,CLINICA INTEGRAL,DECIMA PRIMERA ORIENTE NORTE,565.0,BARRIO,HIDALGO,29043.0,CHIAPAS,Tuxtla Gutiérrez,Tuxtla Gutiérrez,,16.75670086,-93.10618057
8266492,CLINICA LIFELIGHT,QUINTA NORTE PONIENTE,404.0,FRACCIONAMIENTO,LAS ARBOLEDAS,29030.0,CHIAPAS,Tuxtla Gutiérrez,Tuxtla Gutiérrez,9611250898.0,16.76075586,-93.13077635
7229974,CLINICA TEOS,DOCTOR BELISARIO DOMINGUEZ,1934.0,COLONIA,FRACC ARBOLEDAS,29030.0,CHIAPAS,Tuxtla Gutiérrez,Tuxtla Gutiérrez,,16.75441977,-93.1335442
7071924,CLUB DE BIENESTAR SIN NOMBRE,TERCERA PONIENTE,,COLONIA,CENTRO,30700.0,CHIAPAS,Tapachula,Tapachula de Córdova y Ordóñez,,14.90891819,-92.26287991
7047029,CONSULTO MEDICO DE ORIENTACION NUTRICIONAL,NINGUNO,,BARRIO,CENTRO,29930.0,CHIAPAS,Yajalón,Yajalón,,17.17630657,-92.33623166
7068198,CONSULTORIO DE NUTRICION,CUARTA NORTE PONIENTE,51.0,BARRIO,CRUZ GRANDE,30019.0,CHIAPAS,Comitán de Domínguez,Comitán de Domínguez,,16.25373513,-92.14073763
7132779,CONSULTORIO DE NUTRICION ALEJANDRA,SEGUNDA ORIENTE SUR(VICENTE GUERRERO),8.0,BARRIO,CENTRO,30187.0,CHIAPAS,Las Margaritas,Las Margaritas,9635652716.0,16.31602911,-91.98086118
8495358,CONSULTORIO DE NUTRICION CLINICA,SEGUNDA NORTE PONIENTE,16.0,COLONIA,CENTRO,30000.0,CHIAPAS,Comitán de Domínguez,Comitán de Domínguez,9631232803.0,16.252821,-92.13872539
394365,CONSULTORIO DE NUTRICION NUTRIMENTAL,BAJA CALIFORNIA,30.0,BARRIO,SAN RAMON,29240.0,CHIAPAS,San Cristóbal de las Casas,San Cristóbal de las Casas,9611699859.0,16.73727918,-92.65001578
7385176,CONSULTORIO DE NUTRICION SIN NOMBRE,NINGUNO,,PUEBLO,SAN FERNANDO,29120.0,CHIAPAS,San Fernando,San Fernando,,16.87248522,-93.21155490000001
386570,CONSULTORIO DE NUTRICION SIN NOMBRE,PRESA DE LA ANGOSTURA,319.0,FRACCIONAMIENTO,LAS PALMAS,29040.0,CHIAPAS,Tuxtla Gutiérrez,Tuxtla Gutiérrez,9616043357.0,16.75369147,-93.0871953
7308536,CONSULTORIO DE NUTRIOLOGIA,DECIMA TERCERA SUR PONIENTE,51.0,BARRIO,CUMPATA,30099.0,CHIAPAS,Comitán de Domínguez,Comitán de Domínguez,9631446662.0,16.236106799999998,-92.13519844
8577621,CONSULTORIO DE NUTRIOLOGIA,CUARTA ORIENTE SUR,,BARRIO,CENTRO,30187.0,CHIAPAS,Las Margaritas,Las Margaritas,9612330926.0,16.31756159,-91.97997027
376090,CONSULTORIO DE NUTRIOLOGIA SIN NOMBRE,CASCADAS DE AGUA AZUL,535.0,COLONIA,LOS LAGUITOS,29020.0,CHIAPAS,Tuxtla Gutiérrez,Tuxtla Gutiérrez,,16.76521816,-93.14981935
7046617,CONSULTORIO DE NUTRISION DIANA DE JESUS,C. ELISEO PALACIOS,,COLONIA,MAGISTERIAL,29960.0,CHIAPAS,Palenque,Palenque,9161076521.0,17.50452553,-91.98531105
8056494,CONSULTORIO INTEGRAL DE NUTRICION,SEGUNDA PONIENTE SUR,,BARRIO,CENTRO,30140.0,CHIAPAS,Frontera Comalapa,Frontera Comalapa,9631647159.0,15.65928089,-92.14297374
8755032,CONSULTORIO IXCHEL,TERCERA ORIENTE NORTE,610.0,COLONIA,CENTRO,29000.0,CHIAPAS,Tuxtla Gutiérrez,Tuxtla Gutiérrez,,16.75799357,-93.11268263
521906,CONSULTORIO MEDICO BARIATRICO,CENTRAL SUR,23.0,COLONIA,CENTRO,30700.0,CHIAPAS,Tapachula,Tapachula de Córdova y Ordóñez,,14.9049824,-92.26436812
8052454,CONSULTORIO MEDICO NUTRIOLOGO BARIATRICO,DECIMA PRIMERA SUR,71.0,COLONIA,CALCANEO BELTRAN,30705.0,CHIAPAS,Tapachula,Tapachula de Córdova y Ordóñez,9621252742.0,14.89275821,-92.26230706
358534,CONSULTORIO NUTRI-CHE,AGUSTIN GARCIA,2.0,COLONIA,MIGUEL ALEMAN,30090.0,CHIAPAS,Comitán de Domínguez,Comitán de Domínguez,,16.23022102,-92.1335044
7667909,CONSULTORIOS SALUDABLE,SEPTIMA SUR ORIENTE,,BARRIO,SANTA CRUZ,29073.0,CHIAPAS,Tuxtla Gutiérrez,Tuxtla Gutiérrez,,16.74576873,-93.1058001
9066506,CONTROL DE PESO KARLA BRAVO,LAGUNAS DE MONTEBELLO,499.0,COLONIA,LOS LAGUITOS,29020.0,CHIAPAS,Tuxtla Gutiérrez,Tuxtla Gutiérrez,,16.76284015,-93.15126093
6910809,CONTROL DE PESO Y TERAPIA NUTIRELAX,QUINTA ORIENTE NORTE,0.0,COLONIA,FRACC ROCIO,29010.0,CHIAPAS,Tuxtla Gutiérrez,Tuxtla Gutiérrez,9612358693.0,16.76640918,-93.10848669
7920898,DR. NUTRIOLOGA,DECIMA SEPTIMA ORIENTE,62.0,COLONIA,BARRIO NUEVO,30700.0,CHIAPAS,Tapachula,Tapachula de Córdova y Ordóñez,921704977.0,14.91276246,-92.25580588
7278199,DRA KENIA MARIA LOPEZ ZENTENO,NOVENA PONIENTE NORTE,950.0,BARRIO,COLON,29037.0,CHIAPAS,Tuxtla Gutiérrez,Tuxtla Gutiérrez,9611470198.0,16.76238917,-93.12262727
7668046,ESBELT CENTER,RIO BLANCO,116.0,COLONIA,CONTINENTAL,29028.0,CHIAPAS,Tuxtla Gutiérrez,Tuxtla Gutiérrez,,16.76575975,-93.15268579
7046744,ESBELTICA,TERCERA SUR ORIENTE(AV. CORREGIDORA),0.0,BARRIO,LOS OLVIDADOS,29960.0,CHIAPAS,Palenque,Palenque,,17.50772969,-91.9789628
369987,FIGURA Y SALUD,CUARTA NORTE,1664.0,FRACCIONAMIENTO,PRIV BONAMPAK,29030.0,CHIAPAS,Tuxtla Gutiérrez,Tuxtla Gutiérrez,9611251079.0,16.75980518,-93.13079258
420595,FIT CLUB PROTEIN BAR,NOVENA PONIENTE NORTE,159.0,BARRIO,GUADALUPE,29000.0,CHIAPAS,Tuxtla Gutiérrez,Tuxtla Gutiérrez,,16.75563293,-93.12370435
7229462,GRUPO EN ACCION,CENTRAL ORIENTE,,BARRIO,SAN MARCOS,29043.0,CHIAPAS,Tuxtla Gutiérrez,Tuxtla Gutiérrez,9611946901.0,16.75265959,-93.10935729
8192259,KINNI,DOCTOR BELISARIO DOMINGUEZ,1550.0,COLONIA,MOCTEZUMA,29030.0,CHIAPAS,Tuxtla Gutiérrez,Tuxtla Gutiérrez,5522876913.0,16.75451867,-93.13068118
523182,LIGHT CENTER,SEGUNDA SUR PONIENTE,1635.0,COLONIA,XAMAIPAK,29060.0,CHIAPAS,Tuxtla Gutiérrez,Tuxtla Gutiérrez,9616029890.0,16.75319908,-93.13166683
8239914,NUTRETE CONTROL DE DIABETES Y PRODUCTOS,NOVENA PONIENTE SUR,434.0,BARRIO,LAS CANOITAS,29066.0,CHIAPAS,Tuxtla Gutiérrez,Tuxtla Gutiérrez,9616585418.0,16.7516497,-93.12440523
7667664,NUTRICION CLINICA ESPECIALIZADA,CUARTA NORTE PONIENTE,1136.0,BARRIO,GUADALUPE,29000.0,CHIAPAS,Tuxtla Gutiérrez,Tuxtla Gutiérrez,2236646.0,16.75849511,-93.12432793
7443489,NUTRICION ESPECIALIZADA PARA CADA ETAPA DE LA VIDA,TERCERA PONIENTE SUR,0.0,BARRIO,SAN ANTONIO,29140.0,CHIAPAS,Ocozocoautla de Espinosa,Ocozocoautla de Espinosa,9611570129.0,16.75745596,-93.37569639
7667765,NUTRICIÓN Y BELLEZA,DECIMA QUINTA PONIENTE SUR,830.0,COLONIA,XAMAIPAK POPULAR,29060.0,CHIAPAS,Tuxtla Gutiérrez,Tuxtla Gutiérrez,,16.74931383,-93.1323316
418914,NUTRICION Y BIENESTAR INTEGRAL,DECIMA SEXTA PONIENTE NORTE,232.0,COLONIA,MOCTEZUMA,29030.0,CHIAPAS,Tuxtla Gutiérrez,Tuxtla Gutiérrez,,16.7579729,-93.13149809999999
8266149,NUTRICION Y CONTROL DE PESO,PRIMERA PONIENTE SUR,1326.0,BARRIO,SAN FRANCISCO,29066.0,CHIAPAS,Tuxtla Gutiérrez,Tuxtla Gutiérrez,9617092040.0,16.74327523,-93.11905612
8151901,NUTRICION Y MEDICINA ESTETICA SIN NOMBRE,AV CENTRAL SUR,,BARRIO,CUERNAVACA,30140.0,CHIAPAS,Frontera Comalapa,Frontera Comalapa,,15.65499486,-92.14296317
355431,"NUTRIMENTAL , NUTRICION Y DIETETICA",PRIMERA SUR PONIENTE,0.0,BARRIO,GUADALUPE,30020.0,CHIAPAS,Comitán de Domínguez,Comitán de Domínguez,,16.25065012,-92.13726388
368377,NUTRIMENTAL NUTRICION Y DIETETICA,DECIMA SEGUNDAPONIENTE NORTE,351.0,COLONIA,MOCTEZUMA,29000.0,CHIAPAS,Tuxtla Gutiérrez,Tuxtla Gutiérrez,9616131358.0,16.75796511,-93.12599177
8116024,NUTRIOLOGA CLINICA,CENTRAL PONIENTE,,BARRIO,SAN PEDRO,30140.0,CHIAPAS,Frontera Comalapa,Frontera Comalapa,,15.66195379,-92.14616247
8616004,NUTRIOLOGIA,NINGUNO,139.0,COLONIA,MOCTEZUMA,29030.0,CHIAPAS,Tuxtla Gutiérrez,Tuxtla Gutiérrez,,16.75584602,-93.12852415
9044722,PRANA,CUARTA PONIENTE,23.0,COLONIA,CENTRO,30700.0,CHIAPAS,Tapachula,Tapachula de Córdova y Ordóñez,9622252199.0,14.90544913,-92.26743701
8192264,PURE CENTRO DE NUTRICION,DECIMA SEXTA PONIENTE NORTE,1.0,COLONIA,ARBOLEDAS,29030.0,CHIAPAS,Tuxtla Gutiérrez,Tuxtla Gutiérrez,,16.75519493,-93.13188059
8996709,REDUCE,NOVENA SUR ORIENTE,345.0,COLONIA,MODERNA,29070.0,CHIAPAS,Tuxtla Gutiérrez,Tuxtla Gutiérrez,9611093744.0,16.7408981,-93.08790498
7229522,REDUCETE,DECIMA PRIMERA ORIENTE NORTE,429.0,BARRIO,HIDALGO,29043.0,CHIAPAS,Tuxtla Gutiérrez,Tuxtla Gutiérrez,9612292683.0,16.75520521,-93.10647483
7072197,RUBY DIET CENTER,LAS PALMAS,8.0,COLONIA,CENTRO,30700.0,CHIAPAS,Tapachula,Tapachula de Córdova y Ordóñez,,14.89180589,-92.27367492
369022,RUBY DIET CENTER,SEXTA SUR PONIENTE,881.0,BARRIO,LAS CANOITAS,29066.0,CHIAPAS,Tuxtla Gutiérrez,Tuxtla Gutiérrez,9616124873.0,16.74951244,-93.12364768
419895,SBELTIC CENTER,QUINTA NORTE PONIENTE,1319.0,BARRIO,EL MAGUEYITO,29000.0,CHIAPAS,Tuxtla Gutiérrez,Tuxtla Gutiérrez,,16.75997959,-93.12593456
7921194,SENUTRI NUTRIOLOGA,CUADRAGESIMA SEPTIMA PONIENTE,0.0,COLONIA,REVOLUCIONARIA CAMPESINA,30700.0,CHIAPAS,Tapachula,Tapachula de Córdova y Ordóñez,,14.92903148,-92.25602457
519531,SIENTETE BIEN COMPLEMENTOS ALIMENTICIOS,DECIMA SEPTIMA ORIENTE,,COLONIA,COLONIA,30700.0,CHIAPAS,Tapachula,Tapachula de Córdova y Ordóñez,9626250708.0,14.91381335,-92.25833855
8578170,SLIM CONTROL DE PESO,TERCERA SUR PONIENTE,,COLONIA,COMITAN DE DOMINGUEZ CENTRO,30000.0,CHIAPAS,Comitán de Domínguez,Comitán de Domínguez,,16.24943055,-92.13554741
7394077,SLIMBODY,SEGUNDA SUR ORIENTE,1575.0,BARRIO,TZOCOTUMBAK,29000.0,CHIAPAS,Tuxtla Gutiérrez,Tuxtla Gutiérrez,,16.74999121,-93.10362108
7047704,VITA SANA,CENTRAL NORTE,100.0,BARRIO,SAN ANTONIO,29930.0,CHIAPAS,Yajalón,Yajalón,9611500156.0,17.17737566,-92.33093377
573053,ALPHA NUTRITIONS,OJINAGA,210.0,COLONIA,CENTRO,31000.0,CHIHUAHUA,Chihuahua,Chihuahua,,28.63464223,-106.07605837
7161282,ASESORIA NUTRICIONAL,MARIANO SAMANIEGO,,COLONIA,SANTA ROSA,31050.0,CHIHUAHUA,Chihuahua,Chihuahua,6143611365.0,28.62540988,-106.06321295
6191359,ATENCION NUTRICIA PARA NIÑOS Y ADULTOS,MANUEL MERINO,17.0,COLONIA,CENTRO,33800.0,CHIHUAHUA,Hidalgo del Parral,Hidalgo del Parral,6271042287.0,26.93083511,-105.67415697
7913023,BALAN C,VALLE DEL SOL,,FRACCIONAMIENTO,BONANZA,32546.0,CHIHUAHUA,Juárez,Juárez,6563608655.0,31.69261979,-106.36581348
8607241,BEOK CLINICA,PEKIN,2203.0,COLONIA,MIRADOR,31205.0,CHIHUAHUA,Chihuahua,Chihuahua,6141011061.0,28.63366108,-106.09082605
566067,BIONUTRIZION,MIGUEL SIGALA,1249.0,COLONIA,20 ANIVERSARIO,31137.0,CHIHUAHUA,Chihuahua,Chihuahua,6142962570.0,28.72718363,-106.14559232
7161699,CENTRO AINBH,NICOLAS CORTEZ DE MONROY,,COLONIA,SAN FELIPE I,31203.0,CHIHUAHUA,Chihuahua,Chihuahua,,28.64914684,-106.08720996
7024748,CENTRO DE CONTROL DE PESO Y ACTIVACION FISICA,PARQUE,2102.0,COLONIA,BENITO JUAREZ,33060.0,CHIHUAHUA,Delicias,Delicias,,28.1811105,-105.45836133
8230098,CENTRO DE MANEJO NUTRICIONAL,VIA LOMBARDIA,5901.0,COLONIA,ARBOLEDAS,31114.0,CHIHUAHUA,Chihuahua,Chihuahua,,28.66249911,-106.12759515
609511,CENTRO DE NUTRICION DOCTOR BERNAD JENSEN,GENERAL RODRIGO M. QUEVEDO,1701.0,COLONIA,MAGISTERIAL,31200.0,CHIHUAHUA,Chihuahua,Chihuahua,6144942728.0,28.66108723,-106.09217736
569363,CENTRO MEDICO DE NUTRICION DRA. MARINA RUBIO GUERRERO,FRANCISCO HERNAN GLANDORF,3506.0,COLONIA,SAN FELIPE IV ETAPA,31203.0,CHIHUAHUA,Chihuahua,Chihuahua,6144145070.0,28.65074826,-106.09796301
551590,CENTRO NUTRICIONAL,MONTEBELLO,2111.0,COLONIA,MISIONES,32000.0,CHIHUAHUA,Juárez,Juárez,6562519013.0,31.70729291,-106.40991147
8531202,CENTRO ORTOMOLECULAR Y ANTIEDAD,DE LA RAZA,2770.0,COLONIA,SILVIAS,32330.0,CHIHUAHUA,Juárez,Juárez,,31.733734000000002,-106.45877705
610809,CLINICA BOTICELLI,FRANCISCO HERNAN GLANDORF,2939.0,COLONIA,SAN FELIPE,31204.0,CHIHUAHUA,Chihuahua,Chihuahua,6141423816.0,28.64997186,-106.09437165
7030619,CLINICA DE ATENCION DENTAL NUTRICIONAL Y PSICOLOGICA,VALLE DEL SOL,,FRACCIONAMIENTO,AMABARES,32540.0,CHIHUAHUA,Juárez,Juárez,,31.69032637,-106.35519378
8228047,CLINICA DE NUTRICION,VICENTE GUERRERO,611.0,COLONIA,ZONA CENTRO,31500.0,CHIHUAHUA,Cuauhtémoc,Cuauhtémoc,,28.403939500000003,-106.86817631
7208201,CLINICA ETERNITE DE MEDICINA ESTETICA Y MICROPIGMENTACION,PASEO TRIUNFO DE LA REPUBLICA,4051.0,COLONIA,MONUMENTAL,32310.0,CHIHUAHUA,Juárez,Juárez,3154294.0,31.73714103,-106.44815667
8368290,COLSULTORIO DE NUTRICION,PERU,1703.0,COLONIA,HIDALGO,32300.0,CHIHUAHUA,Juárez,Juárez,6565990578.0,31.74488937,-106.46919018
8173154,CONSULTARIO DE NUTRICION,ANTONIO BERMUDEZ,4370.0,RESIDENCIAL,REAL DEL SOL II,32618.0,CHIHUAHUA,Juárez,Juárez,,31.68397529,-106.40720226
7264129,CONSULTORIO CONTROL DE PESO,MEXICO,,COLONIA,LA LOMA,33180.0,CHIHUAHUA,Guachochi,Guachochi,6491024557.0,26.82777001,-107.07172151
610690,CONSULTORIO DE CONTROL DE PESO,AHUEHUETE,514.0,COLONIA,BUROCRATICA,31203.0,CHIHUAHUA,Chihuahua,Chihuahua,6142364712.0,28.65822821,-106.09806191
8173156,CONSULTORIO DE NETRICION CLINICA,ANTONIO BERMUDEZ,4370.0,RESIDENCIAL,REAL DEL SOL II,32618.0,CHIHUAHUA,Juárez,Juárez,6561247008.0,31.68397529,-106.40720226
8173087,CONSULTORIO DE NUTRICION,ANTONIO BERMUDEZ,4370.0,RESIDENCIAL,REAL DEL SOL II,32618.0,CHIHUAHUA,Juárez,Juárez,,31.68387162,-106.40725074
7196765,CONSULTORIO DE NUTRICION,J. MARIA ARTEAGA,,COLONIA,MODERNA,33980.0,CHIHUAHUA,Jiménez,José Mariano Jiménez,,27.12232857,-104.92261712
7237212,CONSULTORIO DE NUTRICION,MIRADOR,4702.0,COLONIA,CAMPESTRE III ETAPA,31213.0,CHIHUAHUA,Chihuahua,Chihuahua,6143350564.0,28.64340056,-106.10656179
7940970,CONSULTORIO DE NUTRICION ROCIO DEL CARMEN ARMENDARIZ MACIAS,EUGENIO CINTRON,66.0,COLONIA,HIDALGO DEL PARRAL CENTRO,33800.0,CHIHUAHUA,Hidalgo del Parral,Hidalgo del Parral,6271066444.0,26.92890654,-105.67099866
8964882,CONSULTORIO DE NUTRICION SIN NOMBRE,ANTONIO BERMUDEZ,4370.0,RESIDENCIAL,MICION DE LOS LAGOS,32618.0,CHIHUAHUA,Juárez,Juárez,,31.68397529,-106.40720226
7237225,CONSULTORIO DE NUTRICION Y YOGA,ANTONIO DE MONTES,6310.0,COLONIA,PANAMERICANA,31210.0,CHIHUAHUA,Chihuahua,Chihuahua,,28.65126712,-106.11250417
583291,CONSULTORIO DE NUTRIOLOGA,PARQUE,,SECTOR,PONIENTE,33000.0,CHIHUAHUA,Delicias,Delicias,6391147879.0,28.2007266,-105.48058
549318,CONSULTORIO DE NUTRIOLOGIA,PLUTARCO ELIAS CALLES,1148.0,COLONIA,LA RAZA,32350.0,CHIHUAHUA,Juárez,Juárez,6563505570.0,31.72608646,-106.44209641
8606738,CONSULTORIO DE NUTRIOLOGIA,FRANCISCO VILLA,6103.0,COLONIA,SAUCITO,31110.0,CHIHUAHUA,Chihuahua,Chihuahua,,28.66458825,-106.13002323
8623289,CONSULTORIO DE NUTRIOLOGIA,VIGESIMA TERCERA,,FRACCIONAMIENTO,SAN ANTONIO,31530.0,CHIHUAHUA,Cuauhtémoc,Cuauhtémoc,,28.41116334,-106.85546041
7939226,CONSULTORIO DE NUTRIOLOGIA NUTI BALANCE,2 DE ABRIL,13.0,COLONIA,HIDALGO DEL PARRAL CENTRO,33800.0,CHIHUAHUA,Hidalgo del Parral,Hidalgo del Parral,6271129658.0,26.93154707,-105.66009586
563552,CONSULTORIO GUILLERMO GARIBAY SALASAR URGENCIOLOGIA Y NUTIOLOGIA,BENITO JUAREZ,3200.0,COLONIA,DUBLAN,31710.0,CHIHUAHUA,Nuevo Casas Grandes,Nuevo Casas Grandes,,30.43469898,-107.91493263
9200830,CONSULTORIO MEDICO Y NUTRICIONAL,PROFESOR J. ROMERO,,COLONIA,LOMAS KARIKE,31110.0,CHIHUAHUA,Chihuahua,Chihuahua,,28.66944233,-106.12351682
7448599,CONSULTORIO NUTRICIONAL,PORFIRIO DIAZ,,COLONIA,CENTRO,33130.0,CHIHUAHUA,Meoqui,Pedro Meoqui,,28.26620347,-105.48147337
596512,CONSULTORIO NUTRICIONAL,DE LAS AMERICAS,761.0,COLONIA,ZONA PRONAF,32300.0,CHIHUAHUA,Juárez,Juárez,6561073886.0,31.74432915,-106.45644497
8113749,CONSULTORIO NUTRICIONAL,ANTONIO BERMUDEZ,4370.0,RESIDENCIAL,REAL DEL SOL II,32618.0,CHIHUAHUA,Juárez,Juárez,,31.68397529,-106.40720226
582116,CONSULTORIO NUTRICIONAL,12 DE OCTUBRE,,MANZANA,036,31690.0,CHIHUAHUA,Guerrero,La Junta,6351086375.0,28.47637432,-107.32965419
8669978,CONSULTORIO NUTRICIONAL MEDICO Y PSICOLOGICO,BENITO JUAREZ,3200.0,COLONIA,DUBLAN,31710.0,CHIHUAHUA,Nuevo Casas Grandes,Nuevo Casas Grandes,,30.43469898,-107.91493263
568649,CONSULTORIO NUTRIOLOGA,RIO DE JANEIRO,506.0,COLONIA,PANAMERICANA,31100.0,CHIHUAHUA,Chihuahua,Chihuahua,,28.65331192,-106.10928848
8143322,CONSULTORIO NUTRIOLOGO SIN NOMBRE,VILLA ESCOBEDO,33.0,COLONIA,LA PEÑA,33848.0,CHIHUAHUA,Hidalgo del Parral,Hidalgo del Parral,6271484333.0,26.93103622,-105.68058203
8675768,CONSULTORIO VARIATRA,MADRAZO,4.0,COLONIA,CENTRO,33800.0,CHIHUAHUA,Hidalgo del Parral,Hidalgo del Parral,,26.92876305,-105.65247065
7161901,CONSULTORIOS BELLAVISTA,31,2106.0,COLONIA,ALTAVISTA,31200.0,CHIHUAHUA,Chihuahua,Chihuahua,6141189577.0,28.65417678,-106.07991108
8530610,CONSULTORIOS DE NUTRIÓLOGOS Y DIETISTAS DEL SECTOR PRIVADO,DE LAS AMERICAS,201.0,COLONIA,MARGARITAS,32300.0,CHIHUAHUA,Juárez,Juárez,6568091749.0,31.73915797,-106.45845513
7207738,CONSULTORIOS DE NUTRIÓLOGOS Y DIETISTAS DEL SECTOR PRIVADO,ADOLFO DE LA HUERTA,742.0,COLONIA,EL COLEGIO,32340.0,CHIHUAHUA,Juárez,Juárez,6561681996.0,31.73042891,-106.44566018
7208014,CONSULTORIOS DE NUTRIÓLOGOS Y DIETISTAS DEL SECTOR PRIVADO,DE LAS AMERICAS,201.0,COLONIA,MARGARITAS,32300.0,CHIHUAHUA,Juárez,Juárez,9157775697.0,31.73915797,-106.45845513
8654847,CONSUNTORIO DE NUTRICION,PEDRO SEVERO VARELA,3007.0,COLONIA,LA PLAYA,32310.0,CHIHUAHUA,Juárez,Juárez,,31.74597848,-106.45540817
7218237,CULTIVA VITA,TEOFILO BORUNDA ORTIZ,0.0,COLONIA,SECTOR 8,31020.0,CHIHUAHUA,Chihuahua,Chihuahua,6142844383.0,28.627584600000002,-106.08691502
607818,DIAPSI SISTEMA,LUIS ECHEVERRIA,210.0,COLONIA,PRESIDENTES,31210.0,CHIHUAHUA,Chihuahua,Chihuahua,6144146717.0,28.64874751,-106.10233745
8655033,DOCTORA ABRIL HINOJOS URBINA,PEDRO ROSALES DE LEON,7510.0,FRACCIONAMIENTO,JARDINES DEL SEMINARIO,32500.0,CHIHUAHUA,Juárez,Juárez,,31.7143485,-106.41980657
7237206,DOCTORA NORA HERNANDEZ TREJO,MIRADOR,4904.0,COLONIA,CAMPESTRE RESIDENCIAL II,31213.0,CHIHUAHUA,Chihuahua,Chihuahua,6144265666.0,28.64415988,-106.11083061
9138202,DR RUBEN ALVARADO SALCEDO,MIRADOR,4302.0,COLONIA,CAMPESTRE LOMAS,31214.0,CHIHUAHUA,Chihuahua,Chihuahua,6144231753.0,28.64166179,-106.10238394
7249359,DR SARAHI LEOS NUTRICION,RAFAEL P. SERNA,1714.0,CIUDAD INDUSTRIAL,SAN LORENZO,32600.0,CHIHUAHUA,Juárez,Juárez,6565953190.0,31.75070895,-106.42637811
7236178,EDEN CLINICA INTEGRAL DE CONTROL DE PESO,COLEGIO DE SANTA URSULA,1800.0,FRACCIONAMIENTO,MISIONES UNIVERSIDAD,31124.0,CHIHUAHUA,Chihuahua,Chihuahua,,28.7095565,-106.14928548
7922284,ELITE CONSULTORIO NUTRIOLOGO,ANTONIO DE MONTES,2704.0,COLONIA,SAN FELIPE,31203.0,CHIHUAHUA,Chihuahua,Chihuahua,,28.64772909,-106.09262679
7922109,ELITE CONTROL DE PESO NUTRIOLOGO,ANTONIO DE MONTES,2704.0,COLONIA,SAN FELIPE,31203.0,CHIHUAHUA,Chihuahua,Chihuahua,6142955038.0,28.64772909,-106.09262679
7024034,EQUILIBRA,4 SUR,911.0,SECTOR,SUR,33000.0,CHIHUAHUA,Delicias,Delicias,,28.184242600000005,-105.47561749
8157789,FORTTITUDE CENTER,ANTONIO ORTIZ MENA,,COLONIA,MAGISTERIAL UNIVERSIDAD,31203.0,CHIHUAHUA,Chihuahua,Chihuahua,6142313063.0,28.65516579,-106.09949643
7093621,INTEGRAL NUTRITION CENTER,BENITO JUAREZ,204.0,COLONIA,MARIA ISABEL,32560.0,CHIHUAHUA,Juárez,Juárez,,31.65339078,-106.356206
9197942,JOY CENTRO ESTETICO,PEDRO SEVERO VARELA,3006.0,COLONIA,LA PLAYA,32310.0,CHIHUAHUA,Juárez,Juárez,,31.74586022,-106.45487027
8654979,LICENCIADA EN NUTRICION DENYCE VELARDE,PEDRO ROSALES DE LEON,7510.0,FRACCIONAMIENTO,JARDINES DEL SEMINARIO,32500.0,CHIHUAHUA,Juárez,Juárez,,31.7143485,-106.41980657
8654967,LICENCIADA EN NUTRICION MELISSA PAMELA LOZANO STAILES,PEDRO ROSALES DE LEON,7510.0,FRACCIONAMIENTO,JARDINES DEL SEMINARIO,32500.0,CHIHUAHUA,Juárez,Juárez,,31.7143485,-106.41980657
7812407,MEDESTETIC,16 DE SEPTIEMBRE,406.0,COLONIA,CENTRO,31700.0,CHIHUAHUA,Nuevo Casas Grandes,Nuevo Casas Grandes,,30.41496498,-107.91013724
8798700,MEDICAL PALACE NUTRIOLOGIA,AV. DE LA JUVENTUD (LIC. LUIS DONALDO COLOSIO MURRIETA),,COLONIA,JARDINES DEL SAUCITO,31125.0,CHIHUAHUA,Chihuahua,Chihuahua,6144253183.0,28.67284759,-106.13418823
8654858,MEDICO FEMILIAR Y MEDICINA ESTETICA,EJERCITO NACIONAL,6325.0,FRACCIONAMIENTO,DEL MARQUEZ,32607.0,CHIHUAHUA,Juárez,Juárez,,31.70769316,-106.42882494
7161694,NUSSEM NUTRICION,ALVAREZ DE ARCILLA,2302.0,COLONIA,EMILIANO ZAPATA,31203.0,CHIHUAHUA,Chihuahua,Chihuahua,,28.64608119,-106.09001919
8154473,NUTREALI,ADOLFO DE LA HUERTA,679.0,COLONIA,EL COLEGIO,32340.0,CHIHUAHUA,Juárez,Juárez,,31.73112934,-106.44559452
7237244,NUTRICENTER,SIERRA NEVADA,1813.0,COLONIA,CAMPESTRE WASHINGTON,31238.0,CHIHUAHUA,Chihuahua,Chihuahua,6141318982.0,28.64536576,-106.11929908
7237251,NUTRICENTER CHIHUAHUA,SIERRA NEVADA,1813.0,COLONIA,CAMPESTRE WASHINGTON,31238.0,CHIHUAHUA,Chihuahua,Chihuahua,6144538748.0,28.64536576,-106.11929908
7237254,NUTRICENTER CHIHUAHUA,SIERRA NEVADA,1813.0,COLONIA,CAMPESTRE WASHINGTON,31238.0,CHIHUAHUA,Chihuahua,Chihuahua,6141825328.0,28.64536576,-106.11929908
7237243,NUTRICENTER CHIHUAHUA,SIERRA NEVADA,1813.0,COLONIA,CAMPESTRE WASHINGTON,31238.0,CHIHUAHUA,Chihuahua,Chihuahua,6141399230.0,28.64536576,-106.11929908
8172841,NUTRICION,LICENCIADO OSCAR FLORES SANCHEZ,6571.0,COLONIA,LA PRESA,32688.0,CHIHUAHUA,Juárez,Juárez,6563151740.0,31.66142738,-106.44235318
7275174,NUTRICION INTEGRAL,JUAN RANGEL DE BIESMA,0.0,COLONIA,VIVIENDAS POPULARES,33860.0,CHIHUAHUA,Hidalgo del Parral,Hidalgo del Parral,,26.92538877,-105.67006798
8230495,NUTRICION INTEGRAL Y APAROTOLOGIA ESTETICA,LEONA VICARIO,2301.0,COLONIA,VILLAHERMOSA,31770.0,CHIHUAHUA,Nuevo Casas Grandes,Nuevo Casas Grandes,6361224297.0,30.40394161,-107.88601179
7207824,NUTRICION SALUD Y BELLEZA,ADOLFO LOPEZ MATEOS,1011.0,COLONIA,LOS NOGALES,32350.0,CHIHUAHUA,Juárez,Juárez,6349179.0,31.72738013,-106.45040821
7161701,NUTRICION SALUD Y BIENESTAR,ANTIONIO DE DEZA Y ULLOA,2910.0,COLONIA,SAN FELIPE II,31203.0,CHIHUAHUA,Chihuahua,Chihuahua,,28.64219627,-106.09402227
9115613,NUTRICION Y BIENESTAR INTEGRAL L.N ZUIRY CHAPARRO,INDEPENDENCIA,335.0,COLONIA,CENTRO,33800.0,CHIHUAHUA,Hidalgo del Parral,Hidalgo del Parral,6275208820.0,26.93020806,-105.6543058
578852,NUTRICION Y DEPORTE,IGNACIO LOPEZ RAYON,,COLONIA,ZONA CENTRO,31500.0,CHIHUAHUA,Cuauhtémoc,Cuauhtémoc,6251330319.0,28.40281707,-106.86818734
7024343,NUTRILOGA,GOMEZ MORIN,505.0,SECTOR,SUR,33000.0,CHIHUAHUA,Delicias,Delicias,,28.18499139,-105.46990171
7939722,NUTRIOLOGA,IGNACIO ALLENDE,,COLONIA,CAMPESINA,33980.0,CHIHUAHUA,Jiménez,José Mariano Jiménez,,27.12515978,-104.91092357
8194461,NUTRIOLOGA,FRANCISCO I. MADERO,2101.0,COLONIA,OBRERA,31750.0,CHIHUAHUA,Nuevo Casas Grandes,Nuevo Casas Grandes,6361008140.0,30.40461303,-107.90883849
7023931,NUTRIOLOGA,RIO FLORIDO,5.0,COLONIA,CENTRO,33000.0,CHIHUAHUA,Delicias,Delicias,6391234495.0,28.19112183,-105.46852334
9211699,NUTRIOLOGA DRA KARINA BARCORTA LOYOLA,FRANCISCO CARBONEL,2718.0,COLONIA,SAN FELIPE,31203.0,CHIHUAHUA,Chihuahua,Chihuahua,,28.65162619,-106.09118484
7024160,NUTRIOLOGA NUTRICION Y SALUD,4 PONIENTE,,SECTOR,SECTOR PONIENTE,33000.0,CHIHUAHUA,Delicias,Delicias,,28.19236566,-105.47690706
7922359,NUTRIOLOGA RED SALUD,VALLARTA,5300.0,COLONIA,LAS GRANJAS,31100.0,CHIHUAHUA,Chihuahua,Chihuahua,6141108725.0,28.66924248,-106.10032468
7264257,NUTRIOLOGA SILVANA SANCHEZ,CALLE DEL OJITO,14.0,COLONIA,CENTRO,33800.0,CHIHUAHUA,Hidalgo del Parral,Hidalgo del Parral,6271230772.0,26.93116073,-105.65755576
7916641,NUTRIOLOGIA,A. PABELLON,2210.0,COLONIA,LOS ARROYOS,31125.0,CHIHUAHUA,Chihuahua,Chihuahua,6141884805.0,28.72557901,-106.15208907
7196877,NUTRIOLOGO LUIS SAUCEDA,MANUEL DOBLADO,1307.0,COLONIA,LA LAGUNITA,33730.0,CHIHUAHUA,Camargo,Santa Rosalía de Camargo,6144073173.0,27.68226429,-105.16670473
7024417,NUTRIOMERICS,PARQUE,410.0,COLONIA,CENTRO,33000.0,CHIHUAHUA,Delicias,Delicias,,28.19604024,-105.475026
7208109,NUTRIOOT,PLUTARCO ELIAS CALLES,,FRACCIONAMIENTO,JARDINES DE SAN JOSE,32390.0,CHIHUAHUA,Juárez,Juárez,,31.71599411,-106.44479892
7248903,NUTROLOGIA,ARTICULO 35,254.0,FRACCIONAMIENTO,SICOMOROS,32349.0,CHIHUAHUA,Juárez,Juárez,,31.73555063,-106.43667472
7917485,NUTTRICCION CORPORATIVA,FRANCISCO VILLA,6501.0,COLONIA,FIDEL VELAZQUEZ,31210.0,CHIHUAHUA,Chihuahua,Chihuahua,,28.65566624,-106.11196737
7922931,OCID SERVICIOS MEDICOS,FUENTES MARES,8207.0,COLONIA,NUEVA ESPAÑA I Y II,31063.0,CHIHUAHUA,Chihuahua,Chihuahua,,28.62154174,-106.03364556
